[{"ID":1,"Type":"CLOTHING_SHELTER","Name":"Goodwill: Greenwich Village Store and Donation Center","Address":"44 W 8th Street","Zip Code":10011,"Borough":"Manhattan","Phone Number":"212-477-7024","Website":"https:\/\/www.goodwillnynj.org\/","Open Months":"Year Round","Hours":"Mon-Sun: 9:00 AM - 9:00 PM","lat":40.73295,"lng":-73.99864},{"ID":2,"Type":"CLOTHING_SHELTER","Name":"Goodwill: Manhattan 14st Street Store and Donation Center","Address":"7 W 14th Street","Zip Code":10011,"Borough":"Manhattan","Phone Number":"212-206-1619","Website":"https:\/\/www.goodwillnynj.org\/","Open Months":"Year Round","Hours":"Mon-Sat: 9:00 AM - 9:00 PM; Sun: 10:00 AM - 8:00 PM","lat":40.73646,"lng":-73.9943},{"ID":3,"Type":"CLOTHING_SHELTER","Name":"Goodwill: Brooklyn Livingston Store and Donation Center","Address":"258 Livingston Street","Zip Code":11201,"Borough":"Brooklyn","Phone Number":"718-923-9037","Website":"https:\/\/www.goodwillnynj.org\/","Open Months":"Year Round","Hours":"Mon-Sat: 9:00 AM - 9:00 PM; Sun: 10:00 AM - 8:00 PM","lat":40.68885,"lng":-73.98407},{"ID":4,"Type":"CLOTHING_SHELTER","Name":"Goodwill: Manhattan 23rd Street Store and Donation Center","Address":"220 E 23rd Street","Zip Code":10010,"Borough":"Manhattan","Phone Number":"212-447-7270","Website":"https:\/\/www.goodwillnynj.org\/","Open Months":"Year Round","Hours":"Mon-Sat: 9:00 AM - 9:00 PM; Sun: 10:00 AM - 8:00 PM","lat":40.7382599,"lng":-73.9822},{"ID":5,"Type":"CLOTHING_SHELTER","Name":"Goodwill: Chelsea 25th Street Store and Donation Center","Address":"103 W 25th Street","Zip Code":10001,"Borough":"Manhattan","Phone Number":"646-638-1725","Website":"https:\/\/www.goodwillnynj.org\/","Open Months":"Year Round","Hours":"Mon-Sat: 9:00 AM - 9:00 PM; Sun: 10:00 AM - 8:00 PM","lat":40.74484,"lng":-73.99187},{"ID":6,"Type":"CLOTHING_SHELTER","Name":"Goodwill: Manhattan 61st Street Store and Donation Center","Address":"1114 1st Avenue","Zip Code":10065,"Borough":"Manhattan","Phone Number":"212-355-5206","Website":"https:\/\/www.goodwillnynj.org\/","Open Months":"Year Round","Hours":"Mon-Sat: 9:00 AM - 9:00 PM; Sun: 10:00 AM - 8:00 PM","lat":40.76092,"lng":-73.96079},{"ID":7,"Type":"CLOTHING_SHELTER","Name":"Goodwill: Queens Van Dam Outlet Store and Donation Center","Address":"47-47 Van Dam Street","Zip Code":11101,"Borough":"Long Island City, NY","Phone Number":"718-392-0125","Website":"https:\/\/www.goodwillnynj.org\/","Open Months":"Year Round","Hours":"Mon-Sat: 8:00 AM - 8:00 PM; Sun: 11:00 AM - 7:00 PM","lat":40.7419677,"lng":-73.9339291},{"ID":8,"Type":"CLOTHING_SHELTER","Name":"Goodwill: Manhattan West 72nd Street Store and Donation Center","Address":"157 West 72nd Street","Zip Code":10023,"Borough":"Manhattan","Phone Number":"212-799-2723","Website":"https:\/\/www.goodwillnynj.org\/","Open Months":"Year Round","Hours":"Mon-Sat: 9:00 AM - 9:00 PM; Sun: 10:00 AM - 8:00 PM","lat":40.77837,"lng":-73.98065},{"ID":9,"Type":"CLOTHING_SHELTER","Name":"Goodwill: Manhattan 79th Street Store and Donation Center","Address":"217 W 79th Street","Zip Code":10024,"Borough":"Manhattan","Phone Number":"212-874-5050","Website":"https:\/\/www.goodwillnynj.org\/","Open Months":"Year Round","Hours":"Mon - Sun: 10:00 A.M. - 8:00 P.M.","lat":40.78365,"lng":-73.97909},{"ID":10,"Type":"CLOTHING_SHELTER","Name":"Goodwill: Manhattan Stuyvesant Store and Donation Center","Address":"1704 2nd Avenue","Zip Code":10128,"Borough":"Manhattan","Phone Number":"212-831-1830","Website":"https:\/\/www.goodwillnynj.org\/","Open Months":"Year Round","Hours":"Mon-Sat: 9:00 AM - 9:00 PM; Sun: 10:00 AM - 8:00 PM","lat":40.7793,"lng":-73.9503},{"ID":11,"Type":"CLOTHING_SHELTER","Name":"Goodwill HQ and Donated Goods Processing Center","Address":"4-21 27th Avenue","Zip Code":11102,"Borough":"Astoria, NY","Phone Number":"718-728-5400","Website":"https:\/\/www.goodwillnynj.org\/","Open Months":"Year Round","Hours":"Mon-Fri: 8:30 AM - 4:30 PM; Sat-Sun: CLOSED","lat":40.77489,"lng":-73.93244},{"ID":12,"Type":"CLOTHING_SHELTER","Name":"Goodwill: East Harlem Third Avenue Store and Donation Center","Address":"2231 3rd Avenue","Zip Code":10035,"Borough":"Manhattan","Phone Number":"212-410-0973","Website":"https:\/\/www.goodwillnynj.org\/","Open Months":"Year Round","Hours":"Mon-Sat: 9:00 AM - 9:00 PM; Sun: 10:00 AM - 8:00 PM","lat":40.80135,"lng":-73.9371},{"ID":13,"Type":"CLOTHING_SHELTER","Name":"Goodwill: Harlem Fifth Avenue Store and Donation Center","Address":"2196 5th Avenue","Zip Code":10037,"Borough":"Manhattan","Phone Number":"212-862-0020","Website":"https:\/\/www.goodwillnynj.org\/","Open Months":"Year Round","Hours":"Mon-Sat: 9:00 AM - 9:00 PM; Sun: 10:00 AM - 8:00 PM","lat":40.81234,"lng":-73.93818},{"ID":14,"Type":"CLOTHING_SHELTER","Name":"Goodwill: Washington Heights Store and Donation Center","Address":"512 W 181st Street","Zip Code":10033,"Borough":"Manhattan","Phone Number":"212-923-7910","Website":"https:\/\/www.goodwillnynj.org\/","Open Months":"Year Round","Hours":"Mon-Sat: 9:00 AM - 9:00 PM; Sun: 10:00 AM - 8:00 PM","lat":40.84842,"lng":-73.9319},{"ID":15,"Type":"CLOTHING_SHELTER","Name":"Goodwill: Whitestone U.S. Post Office Donation Bin","Address":"142-02 20th Avenue","Zip Code":11351,"Borough":"Whitestone, NY","Phone Number":"718-728-5400","Website":"https:\/\/www.goodwillnynj.org\/","Open Months":"Year Round","Hours":"Mon-Sun: 24\/7","lat":40.77962,"lng":-73.82823},{"ID":16,"Type":"CLOTHING_SHELTER","Name":"Goodwill: Jamaica \u2013 St. John's University Donation Bin","Address":"8000 Utopia Parkway","Zip Code":11439,"Borough":"Jamaica, NY","Phone Number":"718-728-5400","Website":"https:\/\/www.goodwillnynj.org\/","Open Months":"Year Round","Hours":"Mon-Sun: 7:00 AM - 10:00 PM","lat":40.7255042,"lng":-73.7917967},{"ID":17,"Type":"CLOTHING_SHELTER","Name":"Goodwill: Long Beach Recreation Center Bin","Address":"700 Magnolia Boulevard","Zip Code":11561,"Borough":"Long Beach, NY","Phone Number":"718-728-5400","Website":"https:\/\/www.goodwillnynj.org\/","Open Months":"Year Round","Hours":"Mon-Sun: 24\/7","lat":42.1766099,"lng":-79.4462},{"ID":18,"Type":"CLOTHING_SHELTER","Name":"Family Resource Center","Address":"100 Pennsylvania Avenue, 3rd Floor","Zip Code":11207,"Borough":"Brooklyn","Phone Number":"817-875-0027 ext 206","Website":"http:\/\/www.partnershipforthehomeless.org","Open Months":"Year Round","Hours":"Mon-Fri: 9:00 AM - 5:00 PM; Sat-Sun: CLOSED","lat":40.67546,"lng":-73.89698},{"ID":19,"Type":"CLOTHING_SHELTER","Name":"Housing Works: Upper East Side Thrift Shop","Address":"1200 Lexington Avenue","Zip Code":10028,"Borough":"Manhattan","Phone Number":"1-888- HW-DONATE","Website":"https:\/\/www.housingworks.org\/locations\/upper-east-side-thrift-shop","Open Months":"Year Round","Hours":"Mon-Sat: 11:00 AM - 7:00 PM; Sunday: 11:00 AM - 5:00 PM","lat":40.77657,"lng":-73.95789},{"ID":20,"Type":"CLOTHING_SHELTER","Name":"Housing Works: South Slope Thrift Ship","Address":"424 7th Avenue","Zip Code":11215,"Borough":"Brooklyn","Phone Number":"1-888- HW-DONATE","Website":"https:\/\/www.housingworks.org\/locations\/south-slope-thrift-shop","Open Months":"Year Round","Hours":"Mon-Fri: 12PM - 7PM; Sat: 11AM - 7 PM; Sun: 11AM - 6PM","lat":40.7506708,"lng":-73.9910198},{"ID":21,"Type":"CLOTHING_SHELTER","Name":"Housing Works: Yorkville Thrift Shop (Second Avenue and 90th Street)","Address":"1730 2nd Avenue","Zip Code":10128,"Borough":"Manhattan","Phone Number":"212-722-8306","Website":"https:\/\/www.housingworks.org\/locations\/yorkville-thrift-shop-second-avenue-90th-street","Open Months":"Year Round","Hours":"Mon-Fri: 11AM - 7PM; Sat: 10AM - 6PM; Sun: 11AM - 5PM","lat":40.78026,"lng":-73.94978},{"ID":22,"Type":"CLOTHING_SHELTER","Name":"Housing Works: Soho Thrift Shop","Address":"130 Crosby Street","Zip Code":10012,"Borough":"Manhattan","Phone Number":"646-786-1200","Website":"https:\/\/www.housingworks.org\/locations\/soho-thrift-shop","Open Months":"Year Round","Hours":"Mon-Sat: 11AM - 7PM; Sun: 11AM - 5PM","lat":40.7247,"lng":-73.99639},{"ID":23,"Type":"CLOTHING_SHELTER","Name":"Housing Works: 2nd Ave and 64th Thrift Shop","Address":"1222 2nd Avenue","Zip Code":10065,"Borough":"Manhattan","Phone Number":"646-975-5905","Website":"https:\/\/www.housingworks.org\/locations\/2nd-ave-64th-thrift-shop","Open Months":"Year Round","Hours":"Mon-Sat: 11AM - 7PM; Sun: 11AM - 6PM","lat":40.7636899,"lng":-73.96142},{"ID":24,"Type":"CLOTHING_SHELTER","Name":"Housing Works: Columbus and 74th Thrift Shop","Address":"306 Columbus Avenue","Zip Code":10023,"Borough":"Manhattan","Phone Number":"212-579-7566","Website":"https:\/\/www.housingworks.org\/locations\/columbus-74th-thrift-shop","Open Months":"Year Round","Hours":"Mon-Sat: 10AM - 7PM; Sun: 11AM - 5PM","lat":40.7792699,"lng":-73.97784},{"ID":25,"Type":"CLOTHING_SHELTER","Name":"Housing Works: Chelsea Thrift Shop","Address":"143 W 17th Street","Zip Code":10011,"Borough":"Manhattan","Phone Number":"718-838-5050","Website":"https:\/\/www.housingworks.org\/locations\/chelsea-thrift-shop","Open Months":"Year Round","Hours":"Mon-Sat: 10AM - 7PM; Sun: Noon - 5PM","lat":40.74009,"lng":-73.99715},{"ID":26,"Type":"CLOTHING_SHELTER","Name":"Housing Works: West Village Thrift Shop","Address":"245 W 10th Street","Zip Code":10014,"Borough":"Manhattan","Phone Number":"212-352-1618","Website":"https:\/\/www.housingworks.org\/locations\/west-village-thrift-shop","Open Months":"Year Round","Hours":"Mon-Sat: 11AM - 7PM; Sun: 11AM - 5PM","lat":40.73389,"lng":-74.00592},{"ID":27,"Type":"CLOTHING_SHELTER","Name":"Housing Works: Tribeca Thrift Shop","Address":"119 Chambers Street","Zip Code":10007,"Borough":"Manhattan","Phone Number":"212-732-0584","Website":"https:\/\/www.housingworks.org\/locations\/tribeca-thrift-shop","Open Months":"Year Round","Hours":"Mon-Fri: Noon - 7PM; Sat-Sun: Noon- 5PM","lat":40.71531,"lng":-74.0085299},{"ID":28,"Type":"CLOTHING_SHELTER","Name":"Park Slope Thrift Shop","Address":"266 5th Avenue","Zip Code":11215,"Borough":"Brooklyn","Phone Number":"718-636-2271","Website":"https:\/\/www.housingworks.org\/locations\/park-slope-thrift-shop","Open Months":"Year Round","Hours":"Mon-Fri: Noon - 7PM; Sat-Sun: 11AM - 5PM","lat":40.7452019,"lng":-73.9871101},{"ID":29,"Type":"CLOTHING_SHELTER","Name":"Gramercy Thrift Shop","Address":"157 East 23rd Street","Zip Code":10010,"Borough":"Manhattan","Phone Number":"212-529-5955","Website":"https:\/\/www.housingworks.org\/locations\/gramercy-thrift-shop","Open Months":"Year Round","Hours":"Mon-Sat: 11AM - 7PM; Sun: Noon - 5PM","lat":40.73926,"lng":-73.98376},{"ID":30,"Type":"CLOTHING_SHELTER","Name":"Hell's Kitchen Thrift Shop","Address":"732 9th Avenue","Zip Code":10019,"Borough":"Manhattan","Phone Number":"646-963-2665","Website":"https:\/\/www.housingworks.org\/locations\/hells-kitchen","Open Months":"Year Round","Hours":"Mon\u2013Sat: Noon - 8PM; Sun: Noon - 6PM","lat":40.7631851,"lng":-73.9889634},{"ID":31,"Type":"CLOTHING_SHELTER","Name":"Broadway and 96th Thrift Shop","Address":"2569 Broadway","Zip Code":10036,"Borough":"Manhattan","Phone Number":"212-222-3550","Website":"https:\/\/www.housingworks.org\/locations\/broadway-96th-thrift-shop","Open Months":"Year Round","Hours":"Mon\u2013Sat: 11AM - 7PM; Sun: Noon - 6PM","lat":40.79505,"lng":-73.97183},{"ID":32,"Type":"CLOTHING_SHELTER","Name":"NYC Rescue Mission","Address":"90 Lafayette Street","Zip Code":10013,"Borough":"Manhattan","Phone Number":"212-226-6214 ext 134","Website":"http:\/\/nycrescue.org","Open Months":"Year Round","Hours":"Mon\u2013Sun: 24\/7","lat":40.71752,"lng":-74.00156},{"ID":33,"Type":"CLOTHING_SHELTER","Name":"Positive Step","Address":"305 7th Avenue, 13th Floor","Zip Code":10001,"Borough":"Manhattan","Phone Number":"212-645-3444","Website":"http:\/\/www.coalitionforthehomeless.org\/resources\/partnership-for-the-homeless-positive-step\/","Open Months":"Year Round","Hours":"Mon\u2013Fri: 9AM - 5PM","lat":40.74665,"lng":-73.99338},{"ID":34,"Type":"CLOTHING_SHELTER","Name":"Salvation Army Family Store and Donation Center","Address":"536 W 46th Street","Zip Code":10036,"Borough":"Manhattan","Phone Number":"800-728-7825","Website":"http:\/\/manhattan.satruck.org","Open Months":"Year Round","Hours":"Mon\u2013Sat: 10AM - 6PM; Sunday: CLOSED","lat":40.76288,"lng":-73.9955},{"ID":36,"Type":"CLOTHING_SHELTER","Name":"Salvation Army Family Store","Address":"268 W 96th Street","Zip Code":10025,"Borough":"Manhattan","Phone Number":"800-728-7825","Website":"http:\/\/manhattan.satruck.org","Open Months":"Year Round","Hours":"Mon\u2013Sat: 10AM - 6PM; Sunday: CLOSED","lat":40.79487,"lng":-73.97272},{"ID":37,"Type":"CLOTHING_SHELTER","Name":"Salvation Army Store","Address":"208 E 23rd Street","Zip Code":10010,"Borough":"Manhattan","Phone Number":"212-532-8115","Website":"http:\/\/manhattan.satruck.org","Open Months":"Year Round","Hours":"Mon\u2013Sat: 10AM - 7PM; Sunday: CLOSED","lat":40.7383558,"lng":-73.9823982},{"ID":38,"Type":"CLOTHING_SHELTER","Name":"Salvation Army Family Store","Address":"220 E 23rd Street","Zip Code":10010,"Borough":"Manhattan","Phone Number":"800-728-7825","Website":"http:\/\/manhattan.satruck.org","Open Months":"Year Round","Hours":"Mon\u2013Sat: 10AM - 6PM; Sunday: CLOSED","lat":40.7382599,"lng":-73.9822},{"ID":39,"Type":"CLOTHING_SHELTER","Name":"Salvation Army Greater New York Divisional Headquarters","Address":"120 West 14th Street","Zip Code":10011,"Borough":"Manhattan","Phone Number":"212-337-7200","Website":"http:\/\/manhattan.satruck.org","Open Months":"Year Round","Hours":"Mon\u2013Fri: 8:30AM - 4PM; Sat-Sun: CLOSED","lat":40.73783,"lng":-73.99833},{"ID":40,"Type":"CLOTHING_SHELTER","Name":"Salvation Army Store","Address":"112 4th Avenue","Zip Code":10003,"Borough":"Manhattan","Phone Number":"212-673-2741","Website":"http:\/\/manhattan.satruck.org","Open Months":"Year Round","Hours":"Mon\u2013Sat","lat":40.73261,"lng":-73.99046},{"ID":41,"Type":"CLOTHING_SHELTER","Name":"Salvation Army Store","Address":"34-02 Steinway Street","Zip Code":11101,"Borough":"Manhattan","Phone Number":"718-472-2414","Website":"http:\/\/manhattan.satruck.org","Open Months":"Year Round","Hours":"Mon\u2013Fri: 10AM - 8PM; Sat\u2013Sun: CLOSED","lat":40.75665,"lng":-73.92136},{"ID":42,"Type":"CLOTHING_SHELTER","Name":"Salvation Army Astoria Corps","Address":"45-18 Broadway","Zip Code":11103,"Borough":"Long Island City, NY","Phone Number":"718-821-9046","Website":"http:\/\/newyork.salvationarmy.org","Open Months":"Year Round","Hours":"Mon\u2013Sat: 10AM - 7PM; Sun: CLOSED","lat":40.7568472,"lng":-73.9148049},{"ID":43,"Type":"CLOTHING_SHELTER","Name":"Salvation Army Family Store","Address":"30-11 61st Street","Zip Code":11377,"Borough":"Woodside, NY","Phone Number":"800-728-7825","Website":"http:\/\/manhattan.satruck.org","Open Months":"Year Round","Hours":"Mon\u2013Sat: 10AM - 7PM; Sun: CLOSED","lat":40.6425636,"lng":-74.0231146},{"ID":44,"Type":"CLOTHING_SHELTER","Name":"Salvation Army Bronx Citadel","Address":"425 E 159th Street","Zip Code":10451,"Borough":"Bronx","Phone Number":"718-665-8472","Website":"http:\/\/newyork.salvationarmy.org","Open Months":"Year Round","Hours":"Mon, Wed, Fri: 1PM - 2PM; Tues, Thurs, Sat, Sun: CLOSED","lat":40.8227,"lng":-73.91341},{"ID":45,"Type":"CLOTHING_SHELTER","Name":"Salvation Army Family Store","Address":"937 Broadway","Zip Code":11206,"Borough":"Brooklyn","Phone Number":"800-728-7825","Website":"http:\/\/newyork.salvationarmy.org","Open Months":"Year Round","Hours":"Mon\u2013Sat: 10AM - 7PM; Sun: CLOSED","lat":40.7404025,"lng":-73.9896314},{"ID":46,"Type":"CLOTHING_SHELTER","Name":"Salvation Army Family Store","Address":"436 Atlantic Avenue","Zip Code":11217,"Borough":"Brooklyn","Phone Number":"800-728-7825","Website":"http:\/\/newyork.salvationarmy.org","Open Months":"Year Round","Hours":"Mon\u2013Sat: 10AM - 7PM; Sun: CLOSED","lat":40.68639,"lng":-73.98386},{"ID":47,"Type":"CLOTHING_SHELTER","Name":"Salvation Army Family Store","Address":"1294 Southern Blvd","Zip Code":10459,"Borough":"Bronx","Phone Number":"800-728-7825","Website":"http:\/\/newyork.salvationarmy.org","Open Months":"Year Round","Hours":"Mon\u2013Sat: 10AM - 7PM; Sun: CLOSED","lat":40.83064,"lng":-73.89155},{"ID":48,"Type":"CLOTHING_SHELTER","Name":"Salvation Army Brooklym Adult Rehabilitation Center and Family Store #1","Address":"22 Quincy Street","Zip Code":11238,"Borough":"Brooklyn","Phone Number":"718-622-7166","Website":"http:\/\/newyork.salvationarmy.org","Open Months":"Year Round","Hours":"Mon\u2013Sat: 10AM - 7PM; Sun: CLOSED","lat":40.6857,"lng":-73.96054},{"ID":49,"Type":"CLOTHING_SHELTER","Name":"Salvation Army Warehouse","Address":"4109 Park Avenue","Zip Code":10457,"Borough":"Bronx","Phone Number":"718-583-6508","Website":"http:\/\/newyork.salvationarmy.org","Open Months":"Year Round","Hours":"Mon-Sat: 10AM - 6PM; Sun: CLOSED","lat":40.84548,"lng":-73.90089},{"ID":50,"Type":"CLOTHING_SHELTER","Name":"Salvation Army Bronx Adult Rehabilitation Center","Address":"4133 Park Avenue","Zip Code":10457,"Borough":"Bronx","Phone Number":"800-728-7825","Website":"http:\/\/newyork.salvationarmy.org","Open Months":"Year Round","Hours":"N/A","lat":40.84604,"lng":-73.9008},{"ID":51,"Type":"CLOTHING_SHELTER","Name":"Salvation Army Family Store","Address":"1243 Fulton Street","Zip Code":11216,"Borough":"Brooklyn","Phone Number":"800-728-7825","Website":"http:\/\/newyork.salvationarmy.org","Open Months":"Year Round","Hours":"Mon\u2013Sat: 10AM - 7PM; Sun: CLOSED","lat":40.68066,"lng":-73.9517599},{"ID":52,"Type":"CLOTHING_SHELTER","Name":"Salvation Army Family Store","Address":"73-26 Metropolitan Avenue","Zip Code":11379,"Borough":"Middle Village, NY","Phone Number":"800-728-7825","Website":"http:\/\/newyork.salvationarmy.org","Open Months":"Year Round","Hours":"Mon\u2013Sat: 10AM - 7PM; Sun: CLOSED","lat":40.71258,"lng":-73.87859},{"ID":53,"Type":"CLOTHING_SHELTER","Name":"Salvation Army Family Store","Address":"2359 Jerome Avenue","Zip Code":10468,"Borough":"Bronx","Phone Number":"800-728-7825","Website":"http:\/\/newyork.salvationarmy.org","Open Months":"Year Round","Hours":"Mon\u2013Sat: 10AM - 6PM; Sun: CLOSED","lat":40.86025,"lng":-73.9029599},{"ID":54,"Type":"CLOTHING_SHELTER","Name":"Salvation Army Flushing Corps","Address":"142-50 32nd Avenue","Zip Code":11354,"Borough":"Manhattan","Phone Number":"929-422-6325","Website":"http:\/\/manhattan.satruck.org","Open Months":"Year Round","Hours":"N/A","lat":40.76905,"lng":-73.82483},{"ID":55,"Type":"CLOTHING_SHELTER","Name":"Salvation Army Store","Address":"2441 Boston Road","Zip Code":10467,"Borough":"Manhattan","Phone Number":"718-325-5810","Website":"http:\/\/manhattan.satruck.org","Open Months":"Year Round","Hours":"Mon-Sat: 10AM - 7PM; Sun: CLOSED","lat":40.86205,"lng":-73.8670099},{"ID":56,"Type":"CLOTHING_SHELTER","Name":"Salvation Army Family Store and Donation Center","Address":"6822 3rd Avenue","Zip Code":11220,"Borough":"Brooklyn","Phone Number":"718-833-6894","Website":"http:\/\/newyork.salvationarmy.org","Open Months":"Year Round","Hours":"10AM - 7PM","lat":40.63618,"lng":-74.02604},{"ID":57,"Type":"CLOTHING_SHELTER","Name":"Salvation Army Family Store","Address":"148-15 Archer Avenue","Zip Code":11435,"Borough":"Jamaica, NY","Phone Number":"800-728-7825","Website":"http:\/\/newyork.salvationarmy.org","Open Months":"Year Round","Hours":"Mon\u2013Sat: 10AM - 7PM; Sun: CLOSED","lat":40.70127,"lng":-73.80556},{"ID":58,"Type":"CLOTHING_SHELTER","Name":"Salvation Army Family Store","Address":"3612 Nostrand Avenue","Zip Code":11229,"Borough":"Brooklyn","Phone Number":"800-728-7825","Website":"http:\/\/newyork.salvationarmy.org","Open Months":"Year Round","Hours":"Mon\u2013Sat: 10AM - 7PM; Sun: CLOSED","lat":40.59573,"lng":-73.94116},{"ID":59,"Type":"CLOTHING_SHELTER","Name":"Salvation Army Family Store","Address":"493 Mosel Avenue","Zip Code":10304,"Borough":"Staten Island","Phone Number":"800-728-7825","Website":"http:\/\/newyork.salvationarmy.org","Open Months":"Year Round","Hours":"Mon\u2013Sat: 10AM - 7PM; Sun: CLOSED","lat":40.60525,"lng":-74.08377},{"ID":60,"Type":"CLOTHING_SHELTER","Name":"Salvation Army Family Store and Donation Center","Address":"2053 Clove Road","Zip Code":10304,"Borough":"Staten Island","Phone Number":"718-442-3179","Website":"http:\/\/newyork.salvationarmy.org","Open Months":"Year Round","Hours":"Mon\u2013Sat: 10AM - 7PM; Sun: CLOSED","lat":40.60506,"lng":-74.08369},{"ID":61,"Type":"CLOTHING_SHELTER","Name":"Salvation Army Key Food Queens Village","Address":"220-46 Hillside Avenue","Zip Code":11427,"Borough":"Queens Village, NY","Phone Number":"800-728-7825","Website":"http:\/\/newyork.salvationarmy.org","Open Months":"Year Round","Hours":"N/A","lat":40.7304928,"lng":-73.743006},{"ID":62,"Type":"CLOTHING_SHELTER","Name":"Salvation Army Living Hope Christian Church SA Donation","Address":"243-20 Braddock Avenue","Zip Code":11426,"Borough":"Bellerose, NY","Phone Number":"800-728-7825","Website":"http:\/\/newyork.salvationarmy.org","Open Months":"Year Round","Hours":"N/A","lat":40.7252259,"lng":-73.7244993},{"ID":63,"Type":"CLOTHING_SHELTER","Name":"Salvation Army Family Store","Address":"562 North Avenue","Zip Code":10801,"Borough":"New Rochelle, NY","Phone Number":"800-728-7825","Website":"http:\/\/newyork.salvationarmy.org","Open Months":"Year Round","Hours":"N/A","lat":40.6143852,"lng":-73.9693664},{"ID":64,"Type":"CLOTHING_SHELTER","Name":"St. John the Divine Community Cares","Address":"1047 Amsterdam Avenue","Zip Code":10025,"Borough":"Manhattan","Phone Number":"212-316-7585","Website":"http:\/\/www.stjohndivine.org\/social","Open Months":"Year Round","Hours":"Mon-Fri: 10AM - 5PM","lat":40.8037049,"lng":-73.9631203},{"ID":65,"Type":"CLOTHING_SHELTER","Name":"AIDS Service Center of Lower Manhattan (Men's Clothing Only)","Address":"41 E 11th Street","Zip Code":10003,"Borough":"Manhattan","Phone Number":"212-645-0875","Website":"N/A","Open Months":"Year Round","Hours":"N/A","lat":40.73316,"lng":-73.99273},{"ID":66,"Type":"CLOTHING_SHELTER","Name":"Bowery Mission (Men's Clothing Only)","Address":"227 Bowery","Zip Code":10002,"Borough":"Manhattan","Phone Number":"212-674-3456","Website":"https:\/\/www.bowery.org\/donate\/donate-goods","Open Months":"Year Round","Hours":"Mon-Sat: 7AM - 7PM; Sun: CLOSED","lat":40.72206,"lng":-73.9931299},{"ID":67,"Type":"CLOTHING_SHELTER","Name":"Bowery Mission Transitional Center (Men's Clothing Only)","Address":"45-51 Ave. D","Zip Code":10009,"Borough":"Manhattan","Phone Number":"212-777-3424","Website":"https:\/\/www.bowery.org\/","Open Months":"Year Round","Hours":"Mon-Sat: 7AM - 7PM; Sun: CLOSED","lat":40.72155,"lng":-73.97778},{"ID":68,"Type":"CLOTHING_SHELTER","Name":"Project FIND (Men's Clothing Only)","Address":"127 West 43rd Street, 2nd Floor","Zip Code":10036,"Borough":"Manhattan","Phone Number":"212-575-0693","Website":"http:\/\/www.projectfind.org","Open Months":"Year Round","Hours":"Tue-Sun: 9AM - 5PM","lat":40.7562,"lng":-73.98496},{"ID":69,"Type":"CLOTHING_SHELTER","Name":"CAMBA (Baby + Children Clothing Only)","Address":"19 Winthrop Street","Zip Code":11225,"Borough":"Brooklyn","Phone Number":"718-462-8654","Website":"https:\/\/www.camba.org","Open Months":"Year Round","Hours":"N/A","lat":40.6566199,"lng":-73.95948},{"ID":70,"Type":"CLOTHING_SHELTER","Name":"Kids in Distressed Situations (Baby + Children Clothing Only)","Address":"112 W 34th Street, Suite 1133","Zip Code":10120,"Borough":"Manhattan","Phone Number":"212-279-5493","Website":"N/A","Open Months":"Year Round","Hours":"N/A","lat":40.75,"lng":-73.98866},{"ID":71,"Type":"CLOTHING_SHELTER","Name":"Room to Grow (Baby + Children Clothing Only)","Address":"7 W 30th Street, 3rd Floor","Zip Code":10001,"Borough":"Manhattan","Phone Number":"212-620-7800","Website":"https:\/\/www.roomtogrow.org","Open Months":"Year Round","Hours":"Mon-Fri: 10AM - 12PM, 2PM - 4PM","lat":40.74636,"lng":-73.98712}]