[{"Address":"Columbus Avenue and 79th Street","Borough":"Manhattan","DAYS":"Sundays","ENDTIME":"1:00 PM","MONTH_":"Year Round","Name":"79th St Greenmarket","PROGRAM":"GrowNYC","STARTTIME":"9:00 AM","Website":"http:\/\/www.grownyc.org\/compost\/locations","Zip Code":10024.0,"lat":40.7819529,"lng":-73.9754869,"Type":"FOOD_SCRAP"},{"Address":"462 Halsey Street","Borough":"Brooklyn","DAYS":"Saturdays","ENDTIME":"3:30 PM","MONTH_":"Seasonal - Opening May 26, 2018","Name":"CLOSED FOR SEASON: 462 Halsey Community Farm Fresh Food Box","PROGRAM":"GrowNYC","STARTTIME":"11:30 AM","Website":"https:\/\/www.grownyc.org\/greenmarketco\/foodbox; http:\/\/www.462halsey.com\/compost\/","Zip Code":11233.0,"lat":40.683282,"lng":-73.935667,"Type":"FOOD_SCRAP"},{"Address":"Mt. Lebanon Baptist Church, 228 Decatur Street, Brooklyn, NY 11233","Borough":"Brooklyn","DAYS":"Saturdays","ENDTIME":"2:30 PM","MONTH_":"December - May","Name":"Mt. Lebanon Fresh Food Box","PROGRAM":"GrowNYC","STARTTIME":"11:30 AM","Website":"https:\/\/www.grownyc.org\/compost\/locations","Zip Code":11233.0,"lat":40.681374,"lng":-73.934188,"Type":"FOOD_SCRAP"},{"Address":"Burnside Ave, Jerome Ave - SW Corner","Borough":"Bronx","DAYS":"Fridays","ENDTIME":"10:30 AM","MONTH_":"Year Round","Name":"Burnside Ave","PROGRAM":"GrowNYC","STARTTIME":"7:30 AM","Website":"https:\/\/www.grownyc.org\/compost-go","Zip Code":10453.0,"lat":40.8534,"lng":-73.9077,"Type":"FOOD_SCRAP"},{"Address":"Ocean Ave & Parkside Ave, Brooklyn, NY 11226","Borough":"Brooklyn","DAYS":"Sundays","ENDTIME":"1:00 PM","MONTH_":"Seasonal Market, June - November","Name":"CLOSED FOR SEASON: Parkside Greenmarket","PROGRAM":"GrowNYC","STARTTIME":"9:00 AM","Website":"https:\/\/www.grownyc.org\/greenmarket\/brooklyn\/parkside","Zip Code":11225.0,"lat":40.65507,"lng":-73.96169,"Type":"FOOD_SCRAP"},{"Address":"Cortelyou Rd at Rugby Rd, Brooklyn, NY, 11226","Borough":"Brooklyn","DAYS":"Sundays","ENDTIME":"1:00 PM","MONTH_":"Year Round","Name":"Cortelyou Greenmarket","PROGRAM":"GrowNYC","STARTTIME":"8:00 AM","Website":"http:\/\/www.grownyc.org\/compost\/locations","Zip Code":11226.0,"lat":40.6408302,"lng":-73.9652999,"Type":"FOOD_SCRAP"},{"Address":"W 231 St & Kingsbridge Ave","Borough":"Bronx","DAYS":"Tuesdays","ENDTIME":"10:00 AM","MONTH_":"Seasonal, May - November","Name":"CLOSED FOR SEASON: Church of the Mediator\/La Iglesia El Mediador","PROGRAM":"Serviced\/Managed by Volunteers from Church of the Mediator","STARTTIME":"8:00 AM","Website":"N/A","Zip Code":10463.0,"lat":40.8797653,"lng":-73.9067806,"Type":"FOOD_SCRAP"},{"Address":"E Fordham Road & Jerome Ave - SE Corner","Borough":"Bronx","DAYS":"Fridays","ENDTIME":"10:45 AM","MONTH_":"Year Round","Name":"Fordham Road","PROGRAM":"GrowNYC","STARTTIME":"7:15 AM","Website":"https:\/\/www.grownyc.org\/compost-go","Zip Code":10468.0,"lat":40.862707,"lng":-73.901042,"Type":"FOOD_SCRAP"},{"Address":"Lehman Quad near Shuster Hall","Borough":"Bronx","DAYS":"Mondays","ENDTIME":"10:00 AM","MONTH_":"Year Round","Name":"Lehman College","PROGRAM":"Serviced\/Managed by Volunteers from Lehman College","STARTTIME":"8:00 AM","Website":"N/A","Zip Code":10468.0,"lat":40.8745635,"lng":-73.8916183,"Type":"FOOD_SCRAP"},{"Address":"E. 192 St. btwn Grand Concourse and Valentine, Bronx, NY, 10468","Borough":"Bronx","DAYS":"Tuesdays","ENDTIME":"1:30 PM","MONTH_":"Seasonal Market, June - November","Name":"Poe Park Greenmarket","PROGRAM":"GrowNYC","STARTTIME":"8:00 AM","Website":"http:\/\/www.grownyc.org\/compost\/locations","Zip Code":10458.0,"lat":40.8641072,"lng":-73.8950656,"Type":"FOOD_SCRAP"},{"Address":"2980 Bainbridge Avenue, Bronx, NY 10458","Borough":"Bronx","DAYS":"Thursdays","ENDTIME":"7:00 PM","MONTH_":"Seasonal, June - November","Name":"Bainbridge Avenue Community Garden","PROGRAM":"Serviced\/Managed by Volunteers from Bainbridge Avenue Community Garden","STARTTIME":"4:00 PM","Website":"N/A","Zip Code":10458.0,"lat":40.87094,"lng":-73.883947,"Type":"FOOD_SCRAP"},{"Address":"E Fordham Rd btw Webster Ave & Third Ave - S","Borough":"Bronx","DAYS":"Fridays","ENDTIME":"11:00 AM","MONTH_":"Year Round","Name":"Fordham Plaza","PROGRAM":"GrowNYC","STARTTIME":"7:00 AM","Website":"https:\/\/www.grownyc.org\/compost-go","Zip Code":10458.0,"lat":40.86115,"lng":-73.8908,"Type":"FOOD_SCRAP"},{"Address":"Isham St at Cooper,New York,NY, 10034","Borough":"Manhattan","DAYS":"Saturdays","ENDTIME":"12:00 PM","MONTH_":"Year Round","Name":"Inwood Greenmarket","PROGRAM":"New York Restoration Project & GrowNYC","STARTTIME":"8:00 AM","Website":"http:\/\/www.grownyc.org\/compost\/locations","Zip Code":10034.0,"lat":40.8690103,"lng":-73.9203259,"Type":"FOOD_SCRAP"},{"Address":"Fort Washington Ave btw. 183rd & 185th - W (Bennett Park Entrance)","Borough":"Manhattan","DAYS":"Wednesdays","ENDTIME":"11:15 AM","MONTH_":"Year Round","Name":"181st Street","PROGRAM":"GrowNYC","STARTTIME":"6:45 AM","Website":"https:\/\/www.grownyc.org\/compost-go","Zip Code":10033.0,"lat":40.85295,"lng":-73.9376,"Type":"FOOD_SCRAP"},{"Address":"175th Street between Wadsworth Avenue and Broadway, New York, NY","Borough":"Manhattan","DAYS":"Thursdays","ENDTIME":"2:00 PM","MONTH_":"Seasonal Market, June - November","Name":"CLOSED FOR THE SEASON: 175th Street Greenmarket","PROGRAM":"GrowNYC","STARTTIME":"8:00 AM","Website":"http:\/\/www.grownyc.org\/compost\/locations","Zip Code":10033.0,"lat":40.8461084,"lng":-73.9381243,"Type":"FOOD_SCRAP"},{"Address":"34th Ave at 77th St,Queens,NY,11372","Borough":"Queens","DAYS":"Sundays","ENDTIME":"2:00 PM","MONTH_":"Year Round","Name":"Jackson Heights Greenmarket","PROGRAM":"NYC Compost Project","STARTTIME":"8:00 AM","Website":"http:\/\/www.bignyc.org\/drop-sites","Zip Code":11372.0,"lat":40.7532152,"lng":-73.8896812,"Type":"FOOD_SCRAP"},{"Address":"North Side of Union Turnpike and 257th Street","Borough":"Queens","DAYS":"Thursdays","ENDTIME":"12:00 PM","MONTH_":"Year Round","Name":"Glen Oaks","PROGRAM":"NYC Compost Project","STARTTIME":"10:00 AM","Website":"N/A","Zip Code":11004.0,"lat":40.7457803,"lng":-73.7144021,"Type":"FOOD_SCRAP"},{"Address":"South side of Queens Blvd at 70th Avenue, Queens","Borough":"Queens","DAYS":"Sundays","ENDTIME":"2:00 PM","MONTH_":"Year Round","Name":"Forest Hills Greenmarket","PROGRAM":"NYC Compost Project","STARTTIME":"8:00 AM","Website":"http:\/\/www.bigreuse.org\/compost\/drop-off-list\/","Zip Code":11375.0,"lat":40.7222304,"lng":-73.8467632,"Type":"FOOD_SCRAP"},{"Address":"Hillside Avenue and 179th St - SE Corner","Borough":"Queens","DAYS":"Thursdays","ENDTIME":"9:00 AM","MONTH_":"Year Round","Name":"Jamaica- 179th Street F","PROGRAM":"NYC Compost Project","STARTTIME":"7:00 AM","Website":"N/A","Zip Code":11432.0,"lat":40.7125371,"lng":-73.784473,"Type":"FOOD_SCRAP"},{"Address":"Briarwood E\/F Subway Station Entrance (North Side of Queens Boulevard)","Borough":"Queens","DAYS":"Tuesdays","ENDTIME":"9:30 AM","MONTH_":"Year Round","Name":"Commuter Composting at Briarwood E\/F","PROGRAM":"NYC Compost Project","STARTTIME":"7:30 AM","Website":"N/A","Zip Code":11435.0,"lat":40.7096804,"lng":-73.8190304,"Type":"FOOD_SCRAP"},{"Address":"Kew Gardens Road between 80 Road and 81 Avenue, Kew Gardens, 11415","Borough":"Queens","DAYS":"Tuesdays","ENDTIME":"9:30 AM","MONTH_":"Year Round","Name":"Commuter Composting at Kew Gardens E\/F","PROGRAM":"NYC Compost Project","STARTTIME":"7:30 AM","Website":"N/A","Zip Code":11415.0,"lat":40.7132717,"lng":-73.8299268,"Type":"FOOD_SCRAP"},{"Address":"10th Avenue & West 57th Street","Borough":"Manhattan","DAYS":"Saturdays & Wednesdays","ENDTIME":"Saturdays 1:00 PM, Wednesday 2:00 PM","MONTH_":"Seasonal Market, May - December","Name":"CLOSED FOR THE SEASON: 57th St Greenmarket","PROGRAM":"GrowNYC","STARTTIME":"8:00 AM","Website":"http:\/\/www.grownyc.org\/compost\/locations","Zip Code":10019.0,"lat":40.76911,"lng":-73.98855,"Type":"FOOD_SCRAP"},{"Address":"Pier 84 at W. 44th St. near dog park","Borough":"Manhattan","DAYS":"Every Day","ENDTIME":"7:00 PM","MONTH_":"Year Round","Name":"Hudson River Park's Pier 84 at W. 44th St.","PROGRAM":"Hudson River Park Trust","STARTTIME":"7:00 AM","Website":"https:\/\/www.hudsonriverpark.org\/","Zip Code":10019.0,"lat":40.7634686,"lng":-74.0002584,"Type":"FOOD_SCRAP"},{"Address":"Broadway, Riverside Drive, Dyckman Street (Anne Loftus Playground\/Fort Tyron Park Entrance)","Borough":"Manhattan","DAYS":"Wednesdays","ENDTIME":"11:30 AM","MONTH_":"Year Round","Name":"Dyckman Street","PROGRAM":"GrowNYC","STARTTIME":"6:30 AM","Website":"https:\/\/www.grownyc.org\/compost-go","Zip Code":10040.0,"lat":40.86532,"lng":-73.928,"Type":"FOOD_SCRAP"},{"Address":"2007 Mapes Ave","Borough":"Bronx","DAYS":"Tuesdays","ENDTIME":"6:30 PM","MONTH_":"Year Round","Name":"Mary Mitchell Center","PROGRAM":"GrowNYC","STARTTIME":"2:30 PM","Website":"https:\/\/www.grownyc.org\/compost\/locations","Zip Code":10460.0,"lat":40.844772,"lng":-73.887226,"Type":"FOOD_SCRAP"},{"Address":"168th Street at Fort Washington,New York,NY 10032","Borough":"Manhattan","DAYS":"Tuesdays","ENDTIME":"3:00 PM","MONTH_":"Seasonal Market, June - November","Name":"CLOSED FOR SEASON: Fort Washington Greenmarket","PROGRAM":"GrowNYC","STARTTIME":"8:00 AM","Website":"http:\/\/www.grownyc.org\/compost\/locations","Zip Code":10032.0,"lat":40.8421716,"lng":-73.942289,"Type":"FOOD_SCRAP"},{"Address":"157th, Broadway, Riverside Drive (Ilka Tanya Payan Park)","Borough":"Manhattan","DAYS":"Wednesdays","ENDTIME":"11:00 AM","MONTH_":"Year Round","Name":"157th Street","PROGRAM":"GrowNYC","STARTTIME":"7:00 AM","Website":"https:\/\/www.grownyc.org\/compost-go","Zip Code":10032.0,"lat":40.83404,"lng":-73.9452,"Type":"FOOD_SCRAP"},{"Address":"161st, River Ave - NE Corner","Borough":"Bronx","DAYS":"Fridays","ENDTIME":"10:15 AM","MONTH_":"Year Round","Name":"161st Street - Yankee Stadium","PROGRAM":"GrowNYC","STARTTIME":"7:30 AM","Website":"https:\/\/www.grownyc.org\/compost-go","Zip Code":10452.0,"lat":40.82805,"lng":-73.9257,"Type":"FOOD_SCRAP"},{"Address":"McKinley Sq. at 169th St. & Boston Road","Borough":"Bronx","DAYS":"Wednesdays","ENDTIME":"3:00 PM","MONTH_":"Seasonal Market, July-November","Name":"CLOSED FOR SEASON: Learn it, Grow it, Eat it Youthmarket","PROGRAM":"GrowNYC","STARTTIME":"10:00 AM","Website":"http:\/\/www.grownyc.org\/compost\/locations","Zip Code":10456.0,"lat":40.8312021,"lng":-73.9004133,"Type":"FOOD_SCRAP"},{"Address":"1130 Grand Concourse","Borough":"Bronx","DAYS":"Wednesdays","ENDTIME":"6:00 PM","MONTH_":"Year Round","Name":"BronxWorks","PROGRAM":"GrowNYC","STARTTIME":"2:00 PM","Website":"http:\/\/www.grownyc.org\/compost\/locations","Zip Code":10456.0,"lat":40.8326398,"lng":-73.9187735,"Type":"FOOD_SCRAP"},{"Address":"White Plains Rd & Westchester Ave, Bronx, NY 10472","Borough":"Bronx","DAYS":"Fridays","ENDTIME":"3:00 PM","MONTH_":"Seasonal Market, June - November","Name":"CLOSED FOR SEASON: Parkchester Greenmarket","PROGRAM":"GrowNYC","STARTTIME":"8:00 AM","Website":"http:\/\/www.grownyc.org\/compost\/locations","Zip Code":10472.0,"lat":40.833022,"lng":-73.8627284,"Type":"FOOD_SCRAP"},{"Address":"Broadway & Hamilton Place - N (Montefiore Square)","Borough":"Manhattan","DAYS":"Wednesdays","ENDTIME":"11:00 AM","MONTH_":"Year Round","Name":"137th Street - City College","PROGRAM":"GrowNYC","STARTTIME":"7:15 AM","Website":"https:\/\/www.grownyc.org\/compost-go","Zip Code":10031.0,"lat":40.82099,"lng":-73.9543,"Type":"FOOD_SCRAP"},{"Address":"145th & Edgecombe Ave - NE Corner (Jackie Robinson Park Entrance)","Borough":"Manhattan","DAYS":"Wednesdays","ENDTIME":"10:00 AM","MONTH_":"Year Round","Name":"145th Street","PROGRAM":"GrowNYC","STARTTIME":"6:30 AM","Website":"https:\/\/www.grownyc.org\/compost-go","Zip Code":10031.0,"lat":40.82404,"lng":-73.9446,"Type":"FOOD_SCRAP"},{"Address":"Grand Concourse, 149th Street - SE Corner","Borough":"Bronx","DAYS":"Fridays","ENDTIME":"10:15 AM","MONTH_":"Year Round","Name":"149th St - Grand Concourse","PROGRAM":"GrowNYC","STARTTIME":"7:15 AM","Website":"https:\/\/www.grownyc.org\/compost-go","Zip Code":10451.0,"lat":40.81844,"lng":-73.9272,"Type":"FOOD_SCRAP"},{"Address":"Grand Concourse and 161 St, Bronx, NY, 10451","Borough":"Bronx","DAYS":"Tuesdays","ENDTIME":"2:00 PM","MONTH_":"Seasonal Market, June - November","Name":"CLOSED FOR SEASON: Bronx Borough Hall Greenmarket","PROGRAM":"GrowNYC","STARTTIME":"8:00 AM","Website":"http:\/\/www.grownyc.org\/compost\/locations","Zip Code":10451.0,"lat":40.8269197,"lng":-73.9225039,"Type":"FOOD_SCRAP"},{"Address":"138th, Brook Ave - NW Corner","Borough":"Bronx","DAYS":"Fridays","ENDTIME":"10:00 AM","MONTH_":"Year Round","Name":"Brook Ave","PROGRAM":"GrowNYC","STARTTIME":"6:45 AM","Website":"https:\/\/www.grownyc.org\/compost-go","Zip Code":10454.0,"lat":40.80766,"lng":-73.9193,"Type":"FOOD_SCRAP"},{"Address":"69 9th St, Brooklyn, NY, 11215","Borough":"Brooklyn","DAYS":"Thursdays & Fridays","ENDTIME":"6:00 PM","MONTH_":"Year Round","Name":"Big Reuse Brooklyn","PROGRAM":"NYC Compost Project & Community Partners","STARTTIME":"10:00 AM","Website":"http:\/\/www.bigreuse.org\/compost\/drop-off-list\/","Zip Code":11215.0,"lat":40.673815,"lng":-73.9949411,"Type":"FOOD_SCRAP"},{"Address":"St Marks Pl & Hyatt St\nStaten Island, NY 10301","Borough":"Staten Island","DAYS":"Saturdays","ENDTIME":"1:00 PM","MONTH_":"Year Round","Name":"St. George Greenmarket","PROGRAM":"GrowNYC","STARTTIME":"8:00 AM","Website":"http:\/\/www.grownyc.org\/compost\/locations","Zip Code":10301.0,"lat":40.6415864,"lng":-74.0779094,"Type":"FOOD_SCRAP"},{"Address":"Compost Demonstration Site at Snug Harbor Cultural Center & Botanical Garden\n1000 Richmond Terrace","Borough":"Staten Island","DAYS":"Every Day","ENDTIME":"Dusk","MONTH_":"Year Round","Name":"Compost Demonstration Site at Snug Harbor Cultural Center & Botanical Garden","PROGRAM":"NYC Compost Project","STARTTIME":"Dawn","Website":"http:\/\/snug-harbor.org\/compost\/","Zip Code":10310.0,"lat":40.641672,"lng":-74.101624,"Type":"FOOD_SCRAP"},{"Address":"Staten Island Mall, Marsh Ave & Ring Rd, Staten Island, NY 10314","Borough":"Staten Island","DAYS":"Saturdays","ENDTIME":"1:00 PM","MONTH_":"Seasonal Market, June - November","Name":"Staten Island Mall Greenmarket","PROGRAM":"GrowNYC","STARTTIME":"8:00 AM","Website":"http:\/\/www.grownyc.org\/compost\/locations","Zip Code":10314.0,"lat":40.5834232,"lng":-74.1629698,"Type":"FOOD_SCRAP"},{"Address":"Greenwich Street at Chambers Street,New York,NY","Borough":"Manhattan","DAYS":"Year Round Saturdays and Wednesdays (Wednesday Greenmarket is seasonal, but food scrap drop-off continues as a stand-alone operation in the winter).","ENDTIME":"1:00 PM","MONTH_":"Year Round","Name":"Tribeca Greenmarket","PROGRAM":"GrowNYC, NYC Dept of Sanitation & Community Partners","STARTTIME":"8:00 AM","Website":"http:\/\/www.grownyc.org\/compost\/locations","Zip Code":10013.0,"lat":40.7162918,"lng":-74.0109403,"Type":"FOOD_SCRAP"},{"Address":"6th Avenue & Spring Street -NE Corner","Borough":"Manhattan","DAYS":"Tuesdays & Thursdays","ENDTIME":"11:00 AM","MONTH_":"Year Round","Name":"Hudson Square","PROGRAM":"NYC Compost Project","STARTTIME":"8:00 AM","Website":"www.lesecologycenter.org","Zip Code":10013.0,"lat":40.7255273,"lng":-74.0040577,"Type":"FOOD_SCRAP"},{"Address":"First Avenue between Houston and First Street (West Side)","Borough":"Manhattan","DAYS":"Mondays, Wednesdays, Fridays","ENDTIME":"11:00 AM","MONTH_":"Year Round","Name":"Commuter Composting at 1st Ave and 1st St.","PROGRAM":"NYC Compost Project","STARTTIME":"8:00 AM","Website":"www.lesecologycenter.org","Zip Code":10009.0,"lat":40.7231069,"lng":-73.988458,"Type":"FOOD_SCRAP"},{"Address":"E 7th St & Avenue A, New York, NY 10009","Borough":"Manhattan","DAYS":"Sundays","ENDTIME":"1:00 PM","MONTH_":"Year Round","Name":"Tompkins Square Greenmarket","PROGRAM":"GrowNYC","STARTTIME":"8:00 AM","Website":"http:\/\/www.grownyc.org\/compost\/locations","Zip Code":10009.0,"lat":40.7260554,"lng":-73.9835429,"Type":"FOOD_SCRAP"},{"Address":"213 E. 7th St","Borough":"Manhattan","DAYS":"Sundays","ENDTIME":"5:30 PM","MONTH_":"Year Round","Name":"LES Ecology Center Garden","PROGRAM":"LES Ecology Center","STARTTIME":"8:00 AM","Website":"https:\/\/www.lesecologycenter.org\/programs\/compost\/compost-drop-off-locations\/","Zip Code":10009.0,"lat":40.724479,"lng":-73.979718,"Type":"FOOD_SCRAP"},{"Address":"Broadway at Battery Place,New York,NY, 10004","Borough":"Manhattan","DAYS":"Tuesdays","ENDTIME":"2:00 PM","MONTH_":"Year Round","Name":"Bowling Green Greenmarket","PROGRAM":"GrowNYC","STARTTIME":"8:00 AM","Website":"http:\/\/www.grownyc.org\/compost\/locations","Zip Code":10004.0,"lat":40.704594,"lng":-74.0142515,"Type":"FOOD_SCRAP"},{"Address":"Washington Park between Willoughby Avenue & Dekalb Avenue, Brooklyn, NY 11201","Borough":"Brooklyn","DAYS":"Saturdays","ENDTIME":"3:00 PM","MONTH_":"Year Round","Name":"Fort Greene Greenmarket","PROGRAM":"GrowNYC","STARTTIME":"8:00 AM","Website":"http:\/\/www.grownyc.org\/compost\/locations","Zip Code":11201.0,"lat":40.69132,"lng":-73.9735,"Type":"FOOD_SCRAP"},{"Address":"Court St & Montague St, Brooklyn, NY 11201","Borough":"Brooklyn","DAYS":"Saturdays & Thursdays","ENDTIME":"Saturdays 4:00 PM,\nThursdays 2:00 PM","MONTH_":"Year Round","Name":"Brooklyn Borough Hall Greenmarket","PROGRAM":"GrowNYC & Community Partners","STARTTIME":"8:00 AM","Website":"http:\/\/www.grownyc.org\/compost\/locations","Zip Code":11201.0,"lat":40.6937566,"lng":-73.9904735,"Type":"FOOD_SCRAP"},{"Address":"Corner of Halsey and Knickerbocker","Borough":"Brooklyn","DAYS":"Mondays","ENDTIME":"11:00 AM","MONTH_":"Year Round","Name":"Irving Square Park","PROGRAM":"NYC Compost Project","STARTTIME":"8:00 AM","Website":"N/A","Zip Code":11207.0,"lat":40.6929796,"lng":-73.9081621,"Type":"FOOD_SCRAP"},{"Address":"Urban Farm, Governors Island","Borough":"Manhattan","DAYS":"Saturdays & Sundays","ENDTIME":"4:00 PM","MONTH_":"Seasonal, May\u2013September","Name":"Earth Matter, Compost Learning Center","PROGRAM":"NYC Compost Project","STARTTIME":"12:00 PM","Website":"https:\/\/earthmatter.org\/nyc-compost-project\/","Zip Code":10004.0,"lat":40.6894501,"lng":-74.016792,"Type":"FOOD_SCRAP"},{"Address":"Several locations throughout Governors Island","Borough":"Manhattan","DAYS":"Every Day","ENDTIME":"5:00 PM","MONTH_":"Seasonal, May\u2013September","Name":"Governors Islands \u2018Zero Waste Stations\u2019","PROGRAM":"NYC Compost Project","STARTTIME":"11:00 AM","Website":"https:\/\/earthmatter.org\/nyc-compost-project\/","Zip Code":10004.0,"lat":40.6894506,"lng":-74.0167913,"Type":"FOOD_SCRAP"},{"Address":"Park Pl and Carlton Ave","Borough":"Brooklyn","DAYS":"Wednesdays","ENDTIME":"10:00 AM","MONTH_":"Year Round","Name":"7 Ave B\/Q","PROGRAM":"NYC Compost Project","STARTTIME":"8:00 AM","Website":"N/A","Zip Code":11217.0,"lat":40.677447,"lng":-73.972347,"Type":"FOOD_SCRAP"},{"Address":"Franklin Avenue & Eastern Parkway","Borough":"Brooklyn","DAYS":"Wednesdays","ENDTIME":"10:00 AM","MONTH_":"Year Round","Name":"Franklin Avenue 2\/3\/4\/5","PROGRAM":"NYC Compost Project","STARTTIME":"8:00 AM","Website":"N/A","Zip Code":11238.0,"lat":40.6706998,"lng":-73.9579619,"Type":"FOOD_SCRAP"},{"Address":"Prospect Park West & Plaza Street West, Brooklyn, 11238","Borough":"Brooklyn","DAYS":"Saturdays","ENDTIME":"3:30 PM","MONTH_":"Year Round","Name":"Grand Army Plaza Greenmarket","PROGRAM":"GrowNYC","STARTTIME":"8:00 AM","Website":"http:\/\/www.grownyc.org\/compost\/locations","Zip Code":11238.0,"lat":40.6726424,"lng":-73.9704304,"Type":"FOOD_SCRAP"},{"Address":"Otsego Street and Beard Street","Borough":"Brooklyn","DAYS":"Fridays & Saturdays","ENDTIME":"Fridays 12:00 PM,\nSaturdays 1:00 PM","MONTH_":"Year Round","Name":"Red Hook Community Farm","PROGRAM":"NYC Compost Project","STARTTIME":"Fridays 9:00 AM,\nSaturdays 10:30 AM","Website":"N/A","Zip Code":11231.0,"lat":40.6722226,"lng":-74.0109856,"Type":"FOOD_SCRAP"},{"Address":"Carroll St. btwn Smith & Court Sts, Brooklyn, NY 11231","Borough":"Brooklyn","DAYS":"Sundays","ENDTIME":"1:00 PM","MONTH_":"Year Round","Name":"Carroll Gardens Greenmarket","PROGRAM":"GrowNYC","STARTTIME":"8:00 AM","Website":"http:\/\/www.grownyc.org\/compost\/locations","Zip Code":11231.0,"lat":40.680852,"lng":-73.9955995,"Type":"FOOD_SCRAP"},{"Address":"110th, St. Nicholas, & Malcolm X - NW Corner (Public Plaza)","Borough":"Manhattan","DAYS":"Wednesdays","ENDTIME":"10:15 AM","MONTH_":"Year Round","Name":"Central Park North (110th St)","PROGRAM":"GrowNYC","STARTTIME":"7:00 AM","Website":"https:\/\/www.grownyc.org\/compost-go","Zip Code":10026.0,"lat":40.7984,"lng":-73.9526,"Type":"FOOD_SCRAP"},{"Address":"116th & Lexington Ave - NW Corner","Borough":"Manhattan","DAYS":"Wednesdays","ENDTIME":"10:30 AM","MONTH_":"Year Round","Name":"116th Street","PROGRAM":"GrowNYC","STARTTIME":"7:30 AM","Website":"https:\/\/www.grownyc.org\/compost-go","Zip Code":10035.0,"lat":40.79933,"lng":-73.9432,"Type":"FOOD_SCRAP"},{"Address":"125th Street at Park Avenue, outside the Metro-North Station","Borough":"Manhattan","DAYS":"Wednesdays","ENDTIME":"7:00 PM","MONTH_":"Year Round","Name":"Uptown Grand Central Fresh Food Box","PROGRAM":"GrowNYC","STARTTIME":"3:00 PM","Website":"http:\/\/www.grownyc.org\/greenmarketco\/foodbox","Zip Code":10035.0,"lat":40.8051411,"lng":-73.9391249,"Type":"FOOD_SCRAP"},{"Address":"Broadway at West 114 St,New York,NY,10025","Borough":"Manhattan","DAYS":"Sundays & Thursdays","ENDTIME":"Sundays 1:00 PM,\nThursdays 3:00 PM","MONTH_":"Year Round","Name":"Columbia University Greenmarket","PROGRAM":"GrowNYC, NYC Dept of Sanitation & Community Partners","STARTTIME":"8:00 AM","Website":"http:\/\/www.grownyc.org\/compost\/locations","Zip Code":10025.0,"lat":40.8067454,"lng":-73.9649594,"Type":"FOOD_SCRAP"},{"Address":"110th & Central Park West - SW Corner","Borough":"Manhattan","DAYS":"Wednesdays","ENDTIME":"10:15 AM","MONTH_":"Year Round","Name":"Cathedral Parkway (110th St)","PROGRAM":"GrowNYC","STARTTIME":"6:45 AM","Website":"https:\/\/www.grownyc.org\/compost-go","Zip Code":10025.0,"lat":40.80049,"lng":-73.958524,"Type":"FOOD_SCRAP"},{"Address":"97th St between Columbus & Amsterdam, Manhattan","Borough":"Manhattan","DAYS":"Fridays","ENDTIME":"2:00 PM","MONTH_":"Year Round","Name":"97th Street Greenmarket","PROGRAM":"GrowNYC","STARTTIME":"8:00 AM","Website":"http:\/\/www.grownyc.org\/compost\/locations","Zip Code":10025.0,"lat":40.7941768,"lng":-73.9684124,"Type":"FOOD_SCRAP"},{"Address":"21-45 31st St, Astoria, NY 11105","Borough":"Queens","DAYS":"Tuesdays","ENDTIME":"11:00 AM","MONTH_":"Year Round","Name":"Queens Library at Steinway","PROGRAM":"NYC Compost Project","STARTTIME":"8:00 AM","Website":"http:\/\/www.bigreuse.org\/compost\/drop-off-list\/","Zip Code":11105.0,"lat":40.7769984,"lng":-73.9096802,"Type":"FOOD_SCRAP"},{"Address":"1st Ave between 92nd and 93rd St,New York,NY,10128","Borough":"Manhattan","DAYS":"Sundays","ENDTIME":"1:00 PM","MONTH_":"Seasonal Market, June - November","Name":"CLOSED FOR THE SEASON: 92nd Street Greenmarket","PROGRAM":"GrowNYC","STARTTIME":"9:00 AM","Website":"http:\/\/www.grownyc.org\/compost\/locations","Zip Code":10128.0,"lat":40.7810344,"lng":-73.9463184,"Type":"FOOD_SCRAP"},{"Address":"96th Street & Lexington Ave - SE Corner (Samuel Seabury Playground)","Borough":"Manhattan","DAYS":"Wednesdays","ENDTIME":"10:30 AM","MONTH_":"Year Round","Name":"96th Street","PROGRAM":"GrowNYC","STARTTIME":"7:15 AM","Website":"https:\/\/www.grownyc.org\/compost-go","Zip Code":10128.0,"lat":40.78579,"lng":-73.9508,"Type":"FOOD_SCRAP"},{"Address":"Columbus Ave & W 66th St, New York, NY 10023","Borough":"Manhattan","DAYS":"Saturdays & Thursdays\n","ENDTIME":"Saturdays 1:00 PM,\nThursdays 3:30 PM","MONTH_":"Year Round","Name":"Tucker Square Greenmarket","PROGRAM":"GrowNYC","STARTTIME":"8:00 AM","Website":"http:\/\/www.grownyc.org\/compost\/locations","Zip Code":10023.0,"lat":40.7736069,"lng":-73.9815795,"Type":"FOOD_SCRAP"},{"Address":"82nd Street between 1st and York Avenues","Borough":"Manhattan","DAYS":"Saturdays","ENDTIME":"1:00 PM","MONTH_":"Year Round","Name":"82nd St Greenmarket [St. Stevens]","PROGRAM":"GrowNYC","STARTTIME":"9:00 AM","Website":"http:\/\/www.grownyc.org\/compost\/locations","Zip Code":10028.0,"lat":40.7742982,"lng":-73.9512624,"Type":"FOOD_SCRAP"},{"Address":"1st Avenue Between 70th St and 71st St","Borough":"Manhattan","DAYS":"Tuesdays","ENDTIME":"6:30 PM","MONTH_":"Year Round","Name":"Lenox Hill Neighborhood House Fresh Food Box","PROGRAM":"GrowNYC, NYC Dept of Sanitation & Community Partners","STARTTIME":"3:30 PM","Website":"http:\/\/www.grownyc.org\/greenmarketco\/foodbox","Zip Code":10021.0,"lat":40.7670054,"lng":-73.9578326,"Type":"FOOD_SCRAP"},{"Address":"Main Street under the Helix","Borough":"Manhattan","DAYS":"Saturdays","ENDTIME":"2:30 PM","MONTH_":"Year Round","Name":"Roosevelt Island under the Helix","PROGRAM":"NYC Compost Project","STARTTIME":"9:00 AM","Website":"http:\/\/www.bigreuse.org\/compost","Zip Code":10044.0,"lat":40.7637417,"lng":-73.9478678,"Type":"FOOD_SCRAP"},{"Address":"40-20 Broadway, Long Island City, NY, 11103","Borough":"Queens","DAYS":"Mondays","ENDTIME":"7:00 PM","MONTH_":"Year Round","Name":"Queens Library at Broadway","PROGRAM":"NYC Compost Project","STARTTIME":"1:00 PM","Website":"http:\/\/www.bigreuse.org\/compost\/drop-off-list\/","Zip Code":11103.0,"lat":40.7584821,"lng":-73.9186052,"Type":"FOOD_SCRAP"},{"Address":"32-15 31st St, Astoria, NY 11106 ?","Borough":"Queens","DAYS":"Tuesdays","ENDTIME":"11:00 AM","MONTH_":"Year Round","Name":"Commuter Composting at Broadway N\/W","PROGRAM":"NYC Compost Project","STARTTIME":"8:00 AM","Website":"http:\/\/www.bigreuse.org\/compost\/drop-off-list\/","Zip Code":11106.0,"lat":40.7615982,"lng":-73.9256726,"Type":"FOOD_SCRAP"},{"Address":"33-56 11th Street, Queens","Borough":"Queens","DAYS":"Mondays & Tuesdays","ENDTIME":"6:00 PM","MONTH_":"Year Round","Name":"Junkluggers","PROGRAM":"NYC Compost Project","STARTTIME":"10:00 AM","Website":"N/A","Zip Code":11106.0,"lat":40.7655407,"lng":-73.9373446,"Type":"FOOD_SCRAP"},{"Address":"Broadway & Vernon Blvd, Queens, NY 11106","Borough":"Queens","DAYS":"Every Day","ENDTIME":"Sunset","MONTH_":"Year Round","Name":"Socrates Sculpture Park","PROGRAM":"NYC Compost Project","STARTTIME":"9:00 AM","Website":"http:\/\/socratessculpturepark.org\/programevent\/socratesmarket\/\n\nhttp:\/\/www.bigreuse.org\/compost\/drop-off-list\/","Zip Code":11106.0,"lat":40.7675822,"lng":-73.9359557,"Type":"FOOD_SCRAP"},{"Address":"Corona Plaza, Roosevelt Ave at 103 Street, Queens","Borough":"Queens","DAYS":"Fridays","ENDTIME":"1:00 PM","MONTH_":"Seasonal Market, July to November","Name":"CLOSED FOR SEASON: Corona Greenmarket","PROGRAM":"GrowNYC & Community Partners","STARTTIME":"8:00 AM","Website":"http:\/\/www.grownyc.org\/greenmarket\/queens\/corona","Zip Code":11368.0,"lat":40.7497177,"lng":-73.8626075,"Type":"FOOD_SCRAP"},{"Address":"Maple Playground, Maple Avenue and Kissena Boulevard, Flushing","Borough":"Queens","DAYS":"Wednesdays","ENDTIME":"1:00 PM","MONTH_":"Seasonal Market, July-November","Name":"CLOSED FOR SEASON: Flushing Greenmarket","PROGRAM":"GrowNYC","STARTTIME":"8:00 AM","Website":"http:\/\/www.grownyc.org\/compost\/locations","Zip Code":11355.0,"lat":40.7562501,"lng":-73.8258451,"Type":"FOOD_SCRAP"},{"Address":"Parking Garden at QBG\n42-80 Crommelin Avenue, Flushing, NY 11355","Borough":"Queens","DAYS":"Tuesday-Sunday","ENDTIME":"Follows garden open hours: Nov-Mar: 4:30 PM, April-Oct: 6:00 PM","MONTH_":"Year Round","Name":"Queens Botanical Garden Public Food Scrap Drop-Off","PROGRAM":"NYC Compost Project","STARTTIME":"8:00 AM","Website":"https:\/\/queensbotanical.org","Zip Code":11355.0,"lat":40.75197,"lng":-73.830325,"Type":"FOOD_SCRAP"},{"Address":"NW Corner of 21st street at 41st Ave","Borough":"Queens","DAYS":"Tuesdays","ENDTIME":"11:00 AM","MONTH_":"Year Round","Name":"Commuter Composting at 21st Street F train","PROGRAM":"NYC Compost Project","STARTTIME":"8:00 AM","Website":"N/A","Zip Code":11101.0,"lat":40.754084,"lng":-73.94267,"Type":"FOOD_SCRAP"},{"Address":"Vernon Blvd & 50th Ave, Long Island City, NY 11101 ?","Borough":"Queens","DAYS":"Mondays","ENDTIME":"11:00 AM","MONTH_":"Year Round","Name":"Commuter Composting at Vernon Jackson 7","PROGRAM":"NYC Compost Project","STARTTIME":"8:00 AM","Website":"http:\/\/www.bigreuse.org\/compost\/drop-off-list\/","Zip Code":11101.0,"lat":40.7427437,"lng":-73.9541298,"Type":"FOOD_SCRAP"},{"Address":"Pier 76 at 34th Street and 12th Ave in Hudson River Park's Compost Center","Borough":"Manhattan","DAYS":"Every Day","ENDTIME":"7:00 PM","MONTH_":"Year Round","Name":"Hudson River Park's Pier 76 at W. 34th St.","PROGRAM":"Hudson River Park Trust","STARTTIME":"7:00 AM","Website":"https:\/\/www.hudsonriverpark.org\/","Zip Code":10018.0,"lat":40.757201,"lng":-74.0052018,"Type":"FOOD_SCRAP"},{"Address":"East 47 St at 2 Ave,New York,NY, 10017","Borough":"Manhattan","DAYS":"Wednesdays","ENDTIME":"3:00 PM","MONTH_":"Year Round","Name":"Dag Hammarskjold Plaza Greenmarket","PROGRAM":"GrowNYC","STARTTIME":"8:00 AM","Website":"http:\/\/www.grownyc.org\/compost\/locations","Zip Code":10017.0,"lat":40.7529921,"lng":-73.9698797,"Type":"FOOD_SCRAP"},{"Address":"14th Street Park at southwest corner of 15th St. and 10th Ave","Borough":"Manhattan","DAYS":"Every Day","ENDTIME":"7:00 PM","MONTH_":"Year Round","Name":"Hudson River Park's 14th Street Park at 10th Ave.","PROGRAM":"Hudson River Park Trust","STARTTIME":"7:00 AM","Website":"https:\/\/www.hudsonriverpark.org\/","Zip Code":10011.0,"lat":40.742827,"lng":-74.0078384,"Type":"FOOD_SCRAP"},{"Address":"Chelsea Waterside Park at 23rd St. and 11th Ave entrance","Borough":"Manhattan","DAYS":"Every Day","ENDTIME":"7:00 PM","MONTH_":"Year Round","Name":"Hudson River Park's Chelsea Waterside Park at W. 23rd St.","PROGRAM":"Hudson River Park Trust","STARTTIME":"7:00 AM","Website":"https:\/\/www.hudsonriverpark.org\/","Zip Code":10011.0,"lat":40.7489842,"lng":-74.0071142,"Type":"FOOD_SCRAP"},{"Address":"West 23rd Street and 8th Avenue -SW Corner, New York, NY 10011","Borough":"Manhattan","DAYS":"Tuesdays & Thursdays","ENDTIME":"11:00 AM","MONTH_":"Year Round","Name":"Commuter Composting at 23rd Street C\/E","PROGRAM":"NYC Compost Project","STARTTIME":"8:00 AM","Website":"www.lesecologycenter.org","Zip Code":10011.0,"lat":40.7452994,"lng":-73.9984832,"Type":"FOOD_SCRAP"},{"Address":"Skillman Ave at 43rd St,Queens,NY,11104","Borough":"Queens","DAYS":"Saturdays","ENDTIME":"2:00 PM","MONTH_":"Year Round","Name":"Sunnyside Greenmarket","PROGRAM":"NYC Compost Project","STARTTIME":"8:00 AM","Website":"http:\/\/www.bigreuse.org\/compost\/drop-off-list\/","Zip Code":11104.0,"lat":40.7468806,"lng":-73.9208078,"Type":"FOOD_SCRAP"},{"Address":"West 12 Street and 8 Avenue,New York,NY,10014","Borough":"Manhattan","DAYS":"Saturdays","ENDTIME":"1:00 PM","MONTH_":"Year Round","Name":"Abingdon Square Greenmarket","PROGRAM":"GrowNYC","STARTTIME":"8:00 AM","Website":"http:\/\/www.grownyc.org\/compost\/locations","Zip Code":10014.0,"lat":40.7375462,"lng":-74.0048128,"Type":"FOOD_SCRAP"},{"Address":"Pier 51 at Horatio St. near comfort station","Borough":"Manhattan","DAYS":"Every Day","ENDTIME":"7:00 PM","MONTH_":"Year Round","Name":"Hudson River Park's Pier 51 at Horatio St.","PROGRAM":"Hudson River Park Trust","STARTTIME":"7:00 AM","Website":"https:\/\/www.hudsonriverpark.org\/","Zip Code":10014.0,"lat":40.738228,"lng":-74.0104549,"Type":"FOOD_SCRAP"},{"Address":"Pier 40 at Houston St. near dog park","Borough":"Manhattan","DAYS":"Every Day","ENDTIME":"7:00 PM","MONTH_":"Year Round","Name":"Hudson River Park's Pier 40 at W. Houston St.","PROGRAM":"Hudson River Park Trust","STARTTIME":"7:00 AM","Website":"https:\/\/www.hudsonriverpark.org\/","Zip Code":10014.0,"lat":40.7298117,"lng":-74.0110087,"Type":"FOOD_SCRAP"},{"Address":"E 17th St & Union Square E, New York, NY","Borough":"Manhattan","DAYS":"Mondays, Wednesdays, Fridays, & Saturdays","ENDTIME":"5:00 PM","MONTH_":"Year Round","Name":"Union Square Greenmarket","PROGRAM":"LESEC","STARTTIME":"8:00 AM","Website":"http:\/\/www.grownyc.org\/compost\/locations","Zip Code":10003.0,"lat":40.737098,"lng":-73.9903523,"Type":"FOOD_SCRAP"},{"Address":"Union Ave at Driggs Ave,Brooklyn,NY,11222","Borough":"Brooklyn","DAYS":"Saturdays (Year Round) & \nTuesdays (Jul-Nov only)","ENDTIME":"2:00 PM","MONTH_":"Year Round","Name":"McCarren Park Greenmarket","PROGRAM":"GrowNYC","STARTTIME":"8:00 AM","Website":"http:\/\/www.grownyc.org\/compost\/locations","Zip Code":11222.0,"lat":40.7229156,"lng":-73.9458176,"Type":"FOOD_SCRAP"},{"Address":"Park Church Co-op, 129 Russell Street Brooklyn","Borough":"Brooklyn","DAYS":"Wednesdays","ENDTIME":"9:00 PM","MONTH_":"Year Round","Name":"Park Church Co-op","PROGRAM":"DSNY, Big Reuse, Park Church Co-op","STARTTIME":"6:00 PM","Website":"parkchurchcoop.org","Zip Code":11222.0,"lat":40.725018,"lng":-73.94472,"Type":"FOOD_SCRAP"},{"Address":"Grand Street & Clinton Street (SW corner), Manhattan","Borough":"Manhattan","DAYS":"Mondays & Fridays","ENDTIME":"11:00 AM","MONTH_":"Year Round","Name":"Commuter Composting at Grand Street & Clinton Street","PROGRAM":"NYC Compost Project","STARTTIME":"8:00 AM","Website":"www.lesecologycenter.org","Zip Code":10002.0,"lat":40.7159955,"lng":-73.986664,"Type":"FOOD_SCRAP"},{"Address":"East River Park Compost Park (coordinates: 40.711055, -73.978847)","Borough":"Manhattan","DAYS":"Every Day","ENDTIME":"All day","MONTH_":"Year Round","Name":"East River Park Compost Yard","PROGRAM":"NYC Compost Project","STARTTIME":"All day","Website":"N/A","Zip Code":10002.0,"lat":40.71102,"lng":-73.97905,"Type":"FOOD_SCRAP"},{"Address":"East Broadway & Rutgers Street (SE corner), Manhattan","Borough":"Manhattan","DAYS":"Wednesdays","ENDTIME":"11:00 AM","MONTH_":"Year Round","Name":"Commuter Composting at East Broadway & Rutgers Street","PROGRAM":"NYC Compost Project","STARTTIME":"8:00 AM","Website":"www.lesecologycenter.org","Zip Code":10002.0,"lat":40.7140565,"lng":-73.9902176,"Type":"FOOD_SCRAP"},{"Address":"127th St. & Malcolm X Blvd.","Borough":"Manhattan","DAYS":"Wednesdays","ENDTIME":"11:00 AM","MONTH_":"Year Round","Name":"127 Street & Malcolm X Food Scrap Drop Off Site","PROGRAM":"NYC Compost Project","STARTTIME":"8:00 AM","Website":"http:\/\/www.lesecologycenter.org\/programs\/compost\/compost-drop-off-locations\/","Zip Code":10027.0,"lat":40.8092132,"lng":-73.9446723,"Type":"FOOD_SCRAP"},{"Address":"854 Hunts Point Ave","Borough":"Bronx","DAYS":"Wednesdays","ENDTIME":"6:30 PM","MONTH_":"Year Round","Name":"Project H.O.P.E. Fresh Food Box","PROGRAM":"GrowNYC","STARTTIME":"3:00 PM","Website":"https:\/\/www.grownyc.org\/compost\/locations","Zip Code":10474.0,"lat":40.818032,"lng":-73.888644,"Type":"FOOD_SCRAP"},{"Address":"149th St, Melrose, & 3rd Ave - N Corner","Borough":"Bronx","DAYS":"Fridays","ENDTIME":"10:15 AM","MONTH_":"Year Round","Name":"3rd Ave - 149th St","PROGRAM":"GrowNYC","STARTTIME":"7:00 AM","Website":"https:\/\/www.grownyc.org\/compost-go","Zip Code":10455.0,"lat":40.81622,"lng":-73.9176,"Type":"FOOD_SCRAP"},{"Address":"Pier 25 at N. Moore St. near kid's playground","Borough":"Manhattan","DAYS":"Every Day","ENDTIME":"7:00 PM","MONTH_":"Year Round","Name":"Hudson River Park's Pier 25 at N. Moore St.","PROGRAM":"Hudson River Park Trust","STARTTIME":"7:00 AM","Website":"https:\/\/www.hudsonriverpark.org\/","Zip Code":null,"lat":40.7202214,"lng":-74.0128434,"Type":"FOOD_SCRAP"}]