[{"Address":"92-33 170TH STREET","Borough":"QUEENS","Location 1":"92 33 170TH STREET\nQUEENS, NY 11433","Name":"JSPOA FRIENDSHIP Neighborhood Senior Center - 435","State":"NY","Zip Code":11433,"lat":40.70624,"lng":-73.78843,"Type":"SENIOR_CENTER"},{"Address":"19 GRANT SQUARE","Borough":"BROOKLYN","Location 1":"19 GRANT SQUARE\nBROOKLYN, NY 11216","Name":"FT GREENE GRANT SQUARE Neighborhood Senior Center - 25S","State":"NY","Zip Code":11216,"lat":40.67673,"lng":-73.95248,"Type":"SENIOR_CENTER"},{"Address":"143-22 109TH AVENUE","Borough":"QUEENS","Location 1":"143 22 109TH AVENUE\nQUEENS, NY 11435","Name":"BROOKS MEMORIAL Neighborhood Senior Center - 42A","State":"NY","Zip Code":11435,"lat":40.68842,"lng":-73.80322,"Type":"SENIOR_CENTER"},{"Address":"86-25 FRANeighborhood Senior CenterIS LEWIS BOULEVARD","Borough":"QUEENS","Location 1":"86 25 FRANeighborhood Senior CenterIS LEWIS BOULEVARD\nQUEENS, NY 11427","Name":"JASA HOLLISWOOD Neighborhood Senior Center - 44F","State":"NY","Zip Code":11427,"lat":40.72506,"lng":-73.76479,"Type":"SENIOR_CENTER"},{"Address":"58-20 LITTLE NECK PARKWAY","Borough":"QUEENS","Location 1":"58 20 LITTLE NECK PARKWAY\nQUEENS, NY 11362","Name":"SAMUEL FIELD Neighborhood Senior Center - 44X","State":"NY","Zip Code":11362,"lat":40.76098,"lng":-73.7233,"Type":"SENIOR_CENTER"},{"Address":"50-37 NEWTOWN ROAD","Borough":"QUEENS","Location 1":"50 37 NEWTOWN ROAD\nQUEENS, NY 11377","Name":"WOODSIDE Neighborhood Senior Center - 45C","State":"NY","Zip Code":11377,"lat":40.7540815,"lng":-73.9110773,"Type":"SENIOR_CENTER"},{"Address":"21-21 30TH DRIVE","Borough":"QUEENS","Location 1":"21 21 30TH DRIVE\nQUEENS, NY 11102","Name":"RAICES ASTORIA Neighborhood Senior Center - 44T","State":"NY","Zip Code":11102,"lat":40.7680054,"lng":-73.9283294,"Type":"SENIOR_CENTER"},{"Address":"59-14 70TH AVENUE","Borough":"QUEENS","Location 1":"59 14 70TH AVENUE\nQUEENS, NY 11385","Name":"RIDGEWOOD OLDER ADULT Neighborhood Senior Center - 45A","State":"NY","Zip Code":11385,"lat":40.70102,"lng":-73.89971,"Type":"SENIOR_CENTER"},{"Address":"123-10 143RD STREET","Borough":"QUEENS","Location 1":"123 10 143RD STREET\nQUEENS, NY 11433","Name":"JSPOA ROCKAWAY BLVD Neighborhood Senior Center - 44E","State":"NY","Zip Code":11433,"lat":40.67418,"lng":-73.79616,"Type":"SENIOR_CENTER"},{"Address":"92-47 165TH STREET","Borough":"QUEENS","Location 1":"92 47 165TH STREET\nQUEENS, NY 11433","Name":"JSPOA THEODORA JACKSON Neighborhood Senior Center - 42Q","State":"NY","Zip Code":11433,"lat":40.7044882,"lng":-73.7939312,"Type":"SENIOR_CENTER"},{"Address":"42-15 166TH STREET","Borough":"QUEENS","Location 1":"42 15 166TH STREET\nQUEENS, NY 11358","Name":"KCS FLUSHING Neighborhood Senior Center - 43R","State":"NY","Zip Code":11358,"lat":40.75899,"lng":-73.80009,"Type":"SENIOR_CENTER"},{"Address":"102-19 34TH AVENUE","Borough":"QUEENS","Location 1":"102 19 34TH AVENUE\nQUEENS, NY 11368","Name":"FLORENeighborhood Senior CenterE E. SMITH Neighborhood Senior Center - 43F","State":"NY","Zip Code":11368,"lat":40.756,"lng":-73.86582,"Type":"SENIOR_CENTER"},{"Address":"108-25 62ND DRIVE","Borough":"QUEENS","Location 1":"108 25 62ND DRIVE\nQUEENS, NY 11375","Name":"FOREST HILLS Neighborhood Senior Center - 44M","State":"NY","Zip Code":11375,"lat":40.7358624,"lng":-73.8508013,"Type":"SENIOR_CENTER"},{"Address":"13-28 123RD STREET","Borough":"QUEENS","Location 1":"13 28 123RD STREET\nQUEENS, NY 11356","Name":"HANAC ANGELO PETROMELIS Neighborhood Senior Center - 46F","State":"NY","Zip Code":11356,"lat":40.78577,"lng":-73.84504,"Type":"SENIOR_CENTER"},{"Address":"27-40 HOYT AVENUE SOUTH","Borough":"QUEENS","Location 1":"27 40 HOYT AVENUE SOUTH\nQUEENS, NY 11102","Name":"HANAC HARMONY JVL ISC - 45N","State":"NY","Zip Code":11102,"lat":40.7717335,"lng":-73.9198986,"Type":"SENIOR_CENTER"},{"Address":"155-55 CROSSBAY BLVD","Borough":"QUEENS","Location 1":"155 55 CROSSBAY BLVD\nQUEENS, NY 11414","Name":"CCNS HOWARD BEACH Neighborhood Senior Center - 45G","State":"NY","Zip Code":11414,"lat":40.66503,"lng":-73.84011,"Type":"SENIOR_CENTER"},{"Address":"69-10 75TH STREET","Borough":"QUEENS","Location 1":"69 10 75TH STREET\nQUEENS, NY 11379","Name":"MIDDLE VILLAGE Neighborhood Senior Center - 45F","State":"NY","Zip Code":11379,"lat":40.70919,"lng":-73.87691,"Type":"SENIOR_CENTER"},{"Address":"83-20 QUEENS BOULEVARD","Borough":"QUEENS","Location 1":"83 20 QUEENS BOULEVARD\nQUEENS, NY 11383","Name":"NEWTOWN ITALIAN Neighborhood Senior Center - 43V","State":"NY","Zip Code":11383,"lat":40.7368802,"lng":-73.8797292,"Type":"SENIOR_CENTER"},{"Address":"137-57 FARMERS BOULEVARD","Borough":"QUEENS","Location 1":"137 57 FARMERS BOULEVARD\nQUEENS, NY 11434","Name":"ROBERT COUCHE Neighborhood Senior Center - 44S","State":"NY","Zip Code":11434,"lat":40.6724,"lng":-73.76376,"Type":"SENIOR_CENTER"},{"Address":"68-52 FRESH POND ROAD","Borough":"QUEENS","Location 1":"68 52 FRESH POND ROAD\nQUEENS, NY 11385","Name":"PETER CARDELLA Neighborhood Senior Center - 44G","State":"NY","Zip Code":11385,"lat":40.7036299,"lng":-73.89596,"Type":"SENIOR_CENTER"},{"Address":"67-09 KISSENA BOULEVARD","Borough":"QUEENS","Location 1":"67 09 KISSENA BOULEVARD\nQUEENS, NY 11367","Name":"POMONOK Neighborhood Senior Center - 44W","State":"NY","Zip Code":11367,"lat":40.7346816,"lng":-73.8144923,"Type":"SENIOR_CENTER"},{"Address":"89-02 91 STREET","Borough":"QUEENS","Location 1":"89 02 91 STREET\nQUEENS, NY 11421","Name":"CCNS WOODHAVEN Neighborhood Senior Center - 425","State":"NY","Zip Code":11421,"lat":40.69042,"lng":-73.85321,"Type":"SENIOR_CENTER"},{"Address":"98-16 55TH AVENUE","Borough":"QUEENS","Location 1":"98 16 55TH AVENUE\nQUEENS, NY 11368","Name":"ELMCOR LEFRAK Neighborhood Senior Center - 43K","State":"NY","Zip Code":11368,"lat":40.7390411,"lng":-73.8623734,"Type":"SENIOR_CENTER"},{"Address":"168-01 HILLSIDE AVENUE","Borough":"QUEENS","Location 1":"168 01 HILLSIDE AVENUE\nQUEENS, NY 11432","Name":"CCNS HILLCREST Neighborhood Senior Center - 44P","State":"NY","Zip Code":11432,"lat":40.7103899,"lng":-73.79463,"Type":"SENIOR_CENTER"},{"Address":"169-65 137TH AVENUE","Borough":"QUEENS","Location 1":"169 65 137TH AVENUE\nQUEENS, NY 11434","Name":"ROCHDALE Neighborhood Senior Center - 43M","State":"NY","Zip Code":11434,"lat":40.6727353,"lng":-73.7706741,"Type":"SENIOR_CENTER"},{"Address":"10-25 41ST AVENUE","Borough":"QUEENS","Location 1":"10 25 41ST AVENUE\nQUEENS, NY 11101","Name":"QUEENSBRIDGE-RIIS Neighborhood Senior Center - 43W","State":"NY","Zip Code":11101,"lat":40.7556542,"lng":-73.9453631,"Type":"SENIOR_CENTER"},{"Address":"166-01 LINDEN BOULEVARD","Borough":"QUEENS","Location 1":"166 01 LINDEN BOULEVARD\nQUEENS, NY 11433","Name":"ALLEN COMMUNITY Neighborhood Senior Center - 44Q","State":"NY","Zip Code":11433,"lat":40.6908,"lng":-73.78328,"Type":"SENIOR_CENTER"},{"Address":"35-24 83RD STREET","Borough":"QUEENS","Location 1":"35 24 83RD STREET\nQUEENS, NY 11372","Name":"CCNS CATHERINE SHERIDAN Neighborhood Senior Center - 43B","State":"NY","Zip Code":11372,"lat":40.7512562,"lng":-73.8838101,"Type":"SENIOR_CENTER"},{"Address":"108-74 ROOSEVELT AVENUE","Borough":"QUEENS","Location 1":"108 74 ROOSEVELT AVENUE\nQUEENS, NY 11368","Name":"IPR\/HE CORONA Neighborhood Senior Center - 472","State":"NY","Zip Code":11368,"lat":40.7512257,"lng":-73.8566436,"Type":"SENIOR_CENTER"},{"Address":"34-35A 12TH STREET","Borough":"QUEENS","Location 1":"34 35A 12TH STREET\nQUEENS, NY 11106","Name":"HANAC RAVENSWOOD Neighborhood Senior Center - 43L","State":"NY","Zip Code":11106,"lat":40.76433,"lng":-73.93697,"Type":"SENIOR_CENTER"},{"Address":"93-29 QUEENS BOULEVARD","Borough":"QUEENS","Location 1":"93 29 QUEENS BOULEVARD\nQUEENS, NY 11374","Name":"REGO PARK Neighborhood Senior Center - 43X","State":"NY","Zip Code":11374,"lat":40.73227,"lng":-73.86511,"Type":"SENIOR_CENTER"},{"Address":"208-11 26TH AVENUE","Borough":"QUEENS","Location 1":"208 11 26TH AVENUE\nQUEENS, NY 11360","Name":"SELFHELP CLEARVIEW Neighborhood Senior Center - 43T","State":"NY","Zip Code":11360,"lat":40.7764582,"lng":-73.7839803,"Type":"SENIOR_CENTER"},{"Address":"34-30 137 STREET","Borough":"QUEENS","Location 1":"34 30 137 STREET\nQUEENS, NY 11354","Name":"SELFHELP LATIMER Neighborhood Senior Center - 44A","State":"NY","Zip Code":11354,"lat":40.766116,"lng":-73.8302722,"Type":"SENIOR_CENTER"},{"Address":"69-61 GRAND AVENUE","Borough":"QUEENS","Location 1":"69 61 GRAND AVENUE\nQUEENS, NY 11378","Name":"SELFHELP MASPETH Neighborhood Senior Center - 493","State":"NY","Zip Code":11378,"lat":40.72722,"lng":-73.89369,"Type":"SENIOR_CENTER"},{"Address":"133-33 BROOKVILLE BOULEVARD","Borough":"QUEENS","Location 1":"133 33 BROOKVILLE BOULEVARD\nQUEENS, NY 11422","Name":"SNAP BROOKVILLE Neighborhood Senior Center - 44B","State":"NY","Zip Code":11422,"lat":40.67434,"lng":-73.73183,"Type":"SENIOR_CENTER"},{"Address":"80-45 WINeighborhood Senior CenterHESTER BOULEVARD","Borough":"QUEENS","Location 1":"80 45 WINeighborhood Senior CenterHESTER BOULEVARD\nQUEENS, NY 11427","Name":"SNAP ISC - 42V","State":"NY","Zip Code":11427,"lat":40.73682,"lng":-73.72803,"Type":"SENIOR_CENTER"},{"Address":"103-02 101ST AVENUE","Borough":"QUEENS","Location 1":"103 02 101ST AVENUE\nQUEENS, NY 11416","Name":"CCNS OZONE PARK Neighborhood Senior Center - 42W","State":"NY","Zip Code":11416,"lat":40.68566,"lng":-73.83938,"Type":"SENIOR_CENTER"},{"Address":"45-25 KISSENA BOULEVARD","Borough":"QUEENS","Location 1":"45 25 KISSENA BOULEVARD\nQUEENS, NY 11355","Name":"SELFHELP ISC - 42T","State":"NY","Zip Code":11355,"lat":40.75199,"lng":-73.81988,"Type":"SENIOR_CENTER"},{"Address":"106-06 QUEENS BOULEVARD","Borough":"QUEENS","Location 1":"106 06 QUEENS BOULEVARD\nQUEENS, NY 11375","Name":"SELFHELP AUSTIN ST Neighborhood Senior Center - 43P","State":"NY","Zip Code":11375,"lat":40.72173,"lng":-73.8474899,"Type":"SENIOR_CENTER"},{"Address":"37-06 111TH STREET","Borough":"QUEENS","Location 1":"37 06 111TH STREET\nQUEENS, NY 11368","Name":"KCS CORONA Neighborhood Senior Center - 44K","State":"NY","Zip Code":11368,"lat":40.7537155,"lng":-73.8571684,"Type":"SENIOR_CENTER"},{"Address":"107-24 CORONA AVENUE","Borough":"QUEENS","Location 1":"107 24 CORONA AVENUE\nQUEENS, NY 11368","Name":"RAICES CORONA Neighborhood Senior Center - 44R","State":"NY","Zip Code":11368,"lat":40.74321,"lng":-73.85561,"Type":"SENIOR_CENTER"},{"Address":"2005 AMSTERDAM AVENUE","Borough":"MANHATTAN","Location 1":"2005 AMSTERDAM AVENUE\nMANHATTAN, NY 10032\n(40.834431, -73.940892)","Name":"COTHOA LUNeighborhood Senior CenterHEON CLUB Neighborhood Senior Center - 329","State":"NY","Zip Code":10032,"lat":40.83426,"lng":-73.9408,"Type":"SENIOR_CENTER"},{"Address":"75-01 BROADWAY","Borough":"QUEENS","Location 1":"75 01\nQUEENS, NY 11373\n(40.73855, -73.87088)","Name":"IPR\/HE ELMHURST JACKSON HEIGHTS Neighborhood Senior Center - 43N","State":"NY","Zip Code":11373,"lat":40.7451099,"lng":-73.89012,"Type":"SENIOR_CENTER"},{"Address":"546 MAIN STREET","Borough":"MANHATTAN","Location 1":"546 MAIN STREET\nMANHATTAN, NY 10044\n(40.762838, -73.949208)","Name":"RISA Neighborhood Senior Center - 34X","State":"NY","Zip Code":10044,"lat":40.76183,"lng":-73.94967,"Type":"SENIOR_CENTER"},{"Address":"550 GREENE AVENUE","Borough":"BROOKLYN","Location 1":"550 GREENE AVENUE\nBROOKLYN, NY 11216\n(40.688705, -73.948526)","Name":"TOMPKINS PARK Neighborhood Senior Center - 27R","State":"NY","Zip Code":11216,"lat":40.68853,"lng":-73.94849,"Type":"SENIOR_CENTER"},{"Address":"2322 THIRD AVENUE","Borough":"MANHATTAN","Location 1":"2322 THIRD AVENUE\nMANHATTAN, NY 10035\n(40.804577, -73.935175)","Name":"UBA BEATRICE LEWIS Neighborhood Senior Center - 355","State":"NY","Zip Code":10035,"lat":40.80467,"lng":-73.93536,"Type":"SENIOR_CENTER"},{"Address":"1246 BURKE AVENUE","Borough":"BRONX","Location 1":"1246 BURKE AVENUE\nBRONX, NY 10469\n(40.871155, -73.850849)","Name":"RAIN EASTCHESTER Neighborhood Senior Center - 14Q","State":"NY","Zip Code":10469,"lat":40.871,"lng":-73.85091,"Type":"SENIOR_CENTER"},{"Address":"380 COURT STREET","Borough":"BROOKLYN","Location 1":"380 COURT STREET\nBROOKLYN, NY 11231\n(40.681203, -73.996455)","Name":"AMICO Neighborhood Senior Center - 28D","State":"NY","Zip Code":11231,"lat":40.68135,"lng":-73.99655,"Type":"SENIOR_CENTER"},{"Address":"343 EAST 70TH STREET","Borough":"MANHATTAN","Location 1":"343 EAST 70TH STREET\nMANHATTAN, NY 10021\n(40.766605, -73.957202)","Name":"LENOX HILL ISC - 33K","State":"NY","Zip Code":10021,"lat":40.76675,"lng":-73.95712,"Type":"SENIOR_CENTER"},{"Address":"715 LEONARD STREET","Borough":"BROOKLYN","Location 1":"715 LEONARD STREET\nBROOKLYN, NY 11222\n(40.729025, -73.952759)","Name":"CCNS PETE MCGUINESS Neighborhood Senior Center - 25F","State":"NY","Zip Code":11222,"lat":40.7286872,"lng":-73.9527315,"Type":"SENIOR_CENTER"},{"Address":"4815 AVENUE I","Borough":"BROOKLYN","Location 1":"4815 AVENUE\nBROOKLYN, NY 11234\n(40.62127, -73.928522)","Name":"MIDWOOD Neighborhood Senior Center - 24M","State":"NY","Zip Code":11234,"lat":40.62953,"lng":-73.92334,"Type":"SENIOR_CENTER"},{"Address":"221-15 HORACE HARDING EXPWY","Borough":"QUEENS","Location 1":"221 15\nQUEENS, NY 11364\n(40.596833, -73.749049)","Name":"CCNS BAYSIDE Neighborhood Senior Center - 43A","State":"NY","Zip Code":11364,"lat":40.7425568,"lng":-73.7534059,"Type":"SENIOR_CENTER"},{"Address":"334 MADISON STREET","Borough":"MANHATTAN","Location 1":"334 MADISON STREET\nMANHATTAN, NY 10002\n(40.713316, -73.982999)","Name":"GOOD COMPANIONS Neighborhood Senior Center - 348","State":"NY","Zip Code":10002,"lat":40.71306,"lng":-73.98278,"Type":"SENIOR_CENTER"},{"Address":"331 WEST 42 STREET","Borough":"MANHATTAN","Location 1":"331 WEST 42 STREET\nMANHATTAN, NY 10036\n(40.757899, -73.991389)","Name":"FIND AID COFFEEHOUSE Neighborhood Senior Center - 33P","State":"NY","Zip Code":10036,"lat":40.75809,"lng":-73.99135,"Type":"SENIOR_CENTER"},{"Address":"243 EAST 204TH STREET","Borough":"BRONX","Location 1":"243 EAST 204TH STREET\nBRONX, NY 10458\n(40.874259, -73.884502)","Name":"SISTER ANNUNeighborhood Senior CenterIATA BETHEL Neighborhood Senior Center - 13H","State":"NY","Zip Code":10458,"lat":40.87429,"lng":-73.88433,"Type":"SENIOR_CENTER"},{"Address":"106-20 SHORE FRONT PARKWAY","Borough":"QUEENS","Location 1":"106 20 SHORE FRONT PARKWAY\nQUEENS, NY 11694\n(40.58, -73.83)","Name":"JASA ROCKAWAY PARK Neighborhood Senior Center - 401","State":"NY","Zip Code":11694,"lat":40.58162,"lng":-73.82753,"Type":"SENIOR_CENTER"},{"Address":"811 AVENUE H","Borough":"BROOKLYN","Location 1":"811 AVENUE\nBROOKLYN, NY 11230\n(40.614939, -73.965713)","Name":"BROOKDALE Neighborhood Senior Center - 23Q","State":"NY","Zip Code":11230,"lat":40.62807,"lng":-73.96759,"Type":"SENIOR_CENTER"},{"Address":"1625 OCEAN AVENUE","Borough":"BROOKLYN","Location 1":"1625 OCEAN AVENUE\nBROOKLYN, NY 11230\n(40.622271, -73.955738)","Name":"SR CITIZENS LEAGUE OF FLATBUSH Neighborhood Senior Center - 27D","State":"NY","Zip Code":11230,"lat":40.62232,"lng":-73.95548,"Type":"SENIOR_CENTER"},{"Address":"168 GRAND STREET","Borough":"MANHATTAN","Location 1":"168 GRAND STREET\nMANHATTAN, NY 10013\n(40.719591, -73.998094)","Name":"CPC PROJECT OPEN DOOR Neighborhood Senior Center - 322","State":"NY","Zip Code":10013,"lat":40.71976,"lng":-73.9981899,"Type":"SENIOR_CENTER"},{"Address":"310 GREENWICH STREET","Borough":"MANHATTAN","Location 1":"310 GREENWICH STREET\nMANHATTAN, NY 10013\n(40.717966, -74.01053)","Name":"INDEPENDENeighborhood Senior CenterE PLAZA Neighborhood Senior Center - 33X","State":"NY","Zip Code":10013,"lat":40.71759,"lng":-74.0108599,"Type":"SENIOR_CENTER"},{"Address":"3000 FILLMORE AVENUE","Borough":"BROOKLYN","Location 1":"3000 FILLMORE AVENUE\nBROOKLYN, NY 11234\n(40.60909, -73.936718)","Name":"MARINE PARK ACTIVE ADULTS Neighborhood Senior Center - 24S","State":"NY","Zip Code":11234,"lat":40.60588,"lng":-73.93454,"Type":"SENIOR_CENTER"},{"Address":"7711 18TH AVENUE","Borough":"BROOKLYN","Location 1":"7711 18TH AVENUE\nBROOKLYN, NY 11214\n(40.612162, -73.997222)","Name":"CCNS THE LODGE Neighborhood Senior Center - 24Z","State":"NY","Zip Code":11214,"lat":40.61188,"lng":-73.99731,"Type":"SENIOR_CENTER"},{"Address":"239 WEST 49TH STREET","Borough":"MANHATTAN","Location 1":"239 WEST 49TH STREET\nMANHATTAN, NY 10019\n(40.76129, -73.985684)","Name":"ENeighborhood Senior CenterORE Neighborhood Senior Center - 33L","State":"NY","Zip Code":10019,"lat":40.76141,"lng":-73.98568,"Type":"SENIOR_CENTER"},{"Address":"2205 FIRST AVENUE","Borough":"MANHATTAN","Location 1":"2205 FIRST AVENUE\nMANHATTAN, NY 10029\n(40.794386, -73.936596)","Name":"JEFFERSON HOUSES Neighborhood Senior Center - 352","State":"NY","Zip Code":10029,"lat":40.7945,"lng":-73.93707,"Type":"SENIOR_CENTER"},{"Address":"127 WEST 43RD STREET","Borough":"MANHATTAN","Location 1":"127 WEST 43RD STREET\nMANHATTAN, NY 10036\n(40.75612, -73.985023)","Name":"FIND AID WOODSTOCK Neighborhood Senior Center - 33R","State":"NY","Zip Code":10036,"lat":40.7562,"lng":-73.98496,"Type":"SENIOR_CENTER"},{"Address":"619 LEXINGTON AVENUE","Borough":"MANHATTAN","Location 1":"619 LEXINGTON AVENUE\nMANHATTAN, NY 10022\n(40.75826, -73.971082)","Name":"LENOX HILL Neighborhood Senior Center - 34M","State":"NY","Zip Code":10022,"lat":40.7588,"lng":-73.97045,"Type":"SENIOR_CENTER"},{"Address":"70 MULBERRY STREET","Borough":"MANHATTAN","Location 1":"70 MULBERRY STREET\nMANHATTAN, NY 10013\n(40.716182, -73.999151)","Name":"CPC NY CHINATOWN Neighborhood Senior Center - 320","State":"NY","Zip Code":10013,"lat":40.7161,"lng":-73.99909,"Type":"SENIOR_CENTER"},{"Address":"2070 CLINTON AVENUE","Borough":"BRONX","Location 1":"2070 CLINTON AVENUE\nBRONX, NY 10457\n(40.847318, -73.888062)","Name":"NEIGHBORHOOD SHOPP THOMAS GUESS Neighborhood Senior Center - 14B","State":"NY","Zip Code":10457,"lat":40.84711,"lng":-73.88796,"Type":"SENIOR_CENTER"},{"Address":"30 DELANeighborhood Senior CenterEY STREET","Borough":"MANHATTAN","Location 1":"30 DELANeighborhood Senior CenterEY STREET\nMANHATTAN, NY 10002\n(40.719887, -73.992344)","Name":"BRC Neighborhood Senior Center - 30Q","State":"NY","Zip Code":10002,"lat":40.71997,"lng":-73.99216,"Type":"SENIOR_CENTER"},{"Address":"125 CASSIDY PLACE","Borough":"STATEN ISLAND","Location 1":"125 CASSIDY PLACE\nSTATEN ISLAND, NY 10301\n(40.641877, -74.096454)","Name":"CASC CASSIDY COLES Neighborhood Senior Center - 550","State":"NY","Zip Code":10301,"lat":40.64215,"lng":-74.0963699,"Type":"SENIOR_CENTER"},{"Address":"3450 BOSTON ROAD","Borough":"BRONX","Location 1":"3450 BOSTON ROAD\nBRONX, NY 10469\n(40.87636, -73.848466)","Name":"RAIN BOSTON EAST Neighborhood Senior Center - 14V","State":"NY","Zip Code":10469,"lat":40.87621,"lng":-73.84845,"Type":"SENIOR_CENTER"},{"Address":"2968 BRUCKNER BOULEVARD","Borough":"BRONX","Location 1":"2968 BRUCKNER BOULEVARD\nBRONX, NY 10465\n(40.833925, -73.826191)","Name":"NORTHEAST BRONX Neighborhood Senior Center - 14J","State":"NY","Zip Code":10465,"lat":40.83376,"lng":-73.82635,"Type":"SENIOR_CENTER"},{"Address":"1619 EAST 174 STREET","Borough":"BRONX","Location 1":"1619 EAST 174 STREET\nBRONX, NY 10472\n(40.833953, -73.876072)","Name":"IPR\/HE BRONX RIVER Neighborhood Senior Center - 13T","State":"NY","Zip Code":10472,"lat":40.83487,"lng":-73.87631,"Type":"SENIOR_CENTER"},{"Address":"34 WEST 134TH STREET","Borough":"MANHATTAN","Location 1":"34 WEST 134TH STREET\nMANHATTAN, NY 10037\n(40.812791, -73.939878)","Name":"CENTRAL HARLEM KENNEDY Neighborhood Senior Center - 35C","State":"NY","Zip Code":10037,"lat":40.81247,"lng":-73.94004,"Type":"SENIOR_CENTER"},{"Address":"415 EAST 93RD STREET","Borough":"MANHATTAN","Location 1":"415 EAST 93RD STREET\nMANHATTAN, NY 10128\n(40.781034, -73.945403)","Name":"STANLEY ISAACS Neighborhood Senior Center - 34Y","State":"NY","Zip Code":10128,"lat":40.78121,"lng":-73.94528,"Type":"SENIOR_CENTER"},{"Address":"990 PELHAM PARKWAY SOUTH","Borough":"BRONX","Location 1":"990 PELHAM PARKWAY SOUTH\nBRONX, NY 10461\n(40.856823, -73.860266)","Name":"BRONX HOUSE WEINBERG Neighborhood Senior Center - 13J","State":"NY","Zip Code":10461,"lat":40.85664,"lng":-73.86041,"Type":"SENIOR_CENTER"},{"Address":"593 COLUMBUS AVENUE","Borough":"MANHATTAN","Location 1":"593 COLUMBUS AVENUE\nMANHATTAN, NY 10024\n(40.788276, -73.970867)","Name":"GODDARD RIVERSIDE Neighborhood Senior Center - 33T","State":"NY","Zip Code":10024,"lat":40.7878741,"lng":-73.9709851,"Type":"SENIOR_CENTER"},{"Address":"15 BIALYSTOKER PLACE","Borough":"MANHATTAN","Location 1":"15 BIALYSTOKER PLACE\nMANHATTAN, NY 10002\n(40.715754, -73.982899)","Name":"UJC ADULT LUNeighborhood Senior CenterHEON CLUB - 362","State":"NY","Zip Code":10002,"lat":40.71584,"lng":-73.98308,"Type":"SENIOR_CENTER"},{"Address":"230 BROADWAY","Borough":"STATEN ISLAND","Location 1":"230 BROADWAY\nSTATEN ISLAND, NY 10310\n(40.635676, -74.117437)","Name":"WEST BRIGHTON Neighborhood Senior Center - 545","State":"NY","Zip Code":10310,"lat":40.63585,"lng":-74.11771,"Type":"SENIOR_CENTER"},{"Address":"280 WYCKOFF STREET","Borough":"BROOKLYN","Location 1":"280 WYCKOFF STREET\nBROOKLYN, NY 11217\n(40.683112, -73.983245)","Name":"RAICES WYCKOFF GARDENS Neighborhood Senior Center - 27J","State":"NY","Zip Code":11217,"lat":40.68293,"lng":-73.98311,"Type":"SENIOR_CENTER"},{"Address":"530 WEST 55TH STREET","Borough":"MANHATTAN","Location 1":"530 WEST 55TH STREET\nMANHATTAN, NY 10019\n(40.768361, -73.990797)","Name":"FIND AID CLINTON Neighborhood Senior Center - 33N","State":"NY","Zip Code":10019,"lat":40.76808,"lng":-73.991,"Type":"SENIOR_CENTER"},{"Address":"1001 QUENTIN ROAD","Borough":"BROOKLYN","Location 1":"1001 QUENTIN ROAD\nBROOKLYN, NY 11223\n(40.60776, -73.962756)","Name":"COUNeighborhood Senior CenterIL CENTER FOR SENIOR CITIZENS Neighborhood Senior Center - 26U","State":"NY","Zip Code":11223,"lat":40.60786,"lng":-73.96284,"Type":"SENIOR_CENTER"},{"Address":"650 WEST 187TH STREET","Borough":"MANHATTAN","Location 1":"650 WEST 187TH STREET\nMANHATTAN, NY 10033\n(40.853584, -73.932227)","Name":"WASHINGTON HEIGHTS Neighborhood Senior Center - 36A","State":"NY","Zip Code":10033,"lat":40.85371,"lng":-73.93292,"Type":"SENIOR_CENTER"},{"Address":"188 LINeighborhood Senior CenterOLN AVENUE","Borough":"BRONX","Location 1":"188 LINeighborhood Senior CenterOLN AVENUE\nBRONX, NY 10454\n(40.810256, -73.927649)","Name":"MITCHELL Neighborhood Senior Center - 13Q","State":"NY","Zip Code":10454,"lat":40.80981,"lng":-73.92769,"Type":"SENIOR_CENTER"},{"Address":"3643 NOSTRAND AVENUE","Borough":"BROOKLYN","Location 1":"3643 NOSTRAND AVENUE\nBROOKLYN, NY 11229\n(40.594974, -73.940846)","Name":"CCNS THE BAY Neighborhood Senior Center - 24X","State":"NY","Zip Code":11229,"lat":40.59504,"lng":-73.94063,"Type":"SENIOR_CENTER"},{"Address":"230 RIVERDALE AVENUE","Borough":"BROOKLYN","Location 1":"230 RIVERDALE AVENUE\nBROOKLYN, NY 11212\n(40.661093, -73.908016)","Name":"CCNS RIVERWAY ISC - 28A","State":"NY","Zip Code":11212,"lat":40.66084,"lng":-73.90797,"Type":"SENIOR_CENTER"},{"Address":"4520 FOURTH AVENUE","Borough":"BROOKLYN","Location 1":"4520 FOURTH AVENUE\nBROOKLYN, NY 11220\n(40.649016, -74.010036)","Name":"SUNSET PARK Neighborhood Senior Center - 27L","State":"NY","Zip Code":11220,"lat":40.64902,"lng":-74.0103199,"Type":"SENIOR_CENTER"},{"Address":"400 HART STREET","Borough":"BROOKLYN","Location 1":"400 HART STREET\nBROOKLYN, NY 11206\n(40.69481, -73.934514)","Name":"FT GREENE MARIA LAWTON Neighborhood Senior Center - 25U","State":"NY","Zip Code":11206,"lat":40.6946299,"lng":-73.93472,"Type":"SENIOR_CENTER"},{"Address":"2600 NETHERLAND AVENUE","Borough":"BRONX","Location 1":"2600 NETHERLAND AVENUE\nBRONX, NY 10463\n(40.879073, -73.915085)","Name":"RIVERDALE Neighborhood Senior Center - 14Y","State":"NY","Zip Code":10463,"lat":40.87861,"lng":-73.91479,"Type":"SENIOR_CENTER"},{"Address":"55 EAST 102ND STREET","Borough":"MANHATTAN","Location 1":"55 EAST 102ND STREET\nMANHATTAN, NY 10029\n(40.790764, -73.950699)","Name":"IPR\/HE CARVER Neighborhood Senior Center - 34H","State":"NY","Zip Code":10029,"lat":40.79136,"lng":-73.95016,"Type":"SENIOR_CENTER"},{"Address":"135 WEST 106 STREET","Borough":"MANHATTAN","Location 1":"135 WEST 106 STREET\nMANHATTAN, NY 10025\n(40.799844, -73.964291)","Name":"THE CENTER AT THE RED OAK Neighborhood Senior Center - 36B","State":"NY","Zip Code":10025,"lat":40.80018,"lng":-73.96458,"Type":"SENIOR_CENTER"},{"Address":"60 WEST END AVENUE","Borough":"BROOKLYN","Location 1":"60 WEST END AVENUE\nBROOKLYN, NY 11235\n(40.580129, -73.953518)","Name":"JASA MANHATTAN BEACH Neighborhood Senior Center - 26H","State":"NY","Zip Code":11235,"lat":40.58032,"lng":-73.95374,"Type":"SENIOR_CENTER"},{"Address":"3208 FULTON STREET","Borough":"BROOKLYN","Location 1":"3208 FULTON STREET\nBROOKLYN, NY 11208\n(40.682307, -73.876929)","Name":"CYPRESS HILLS FULTON ST Neighborhood Senior Center - 25L","State":"NY","Zip Code":11208,"lat":40.68217,"lng":-73.87699,"Type":"SENIOR_CENTER"},{"Address":"283 PROSPECT AVENUE","Borough":"BROOKLYN","Location 1":"283 PROSPECT AVENUE\nBROOKLYN, NY 11215\n(40.663185, -73.988965)","Name":"PROSPECT HILL SENIOR SERVICES CENTER - 27Z","State":"NY","Zip Code":11215,"lat":40.66354,"lng":-73.98877,"Type":"SENIOR_CENTER"},{"Address":"447 KINGSBOROUGH 4TH WALK","Borough":"BROOKLYN","Location 1":"447 KINGSBOROUGH 4TH WALK\nBROOKLYN, NY 11233\n(40.675533, -73.924919)","Name":"FT GREENE HUGH GILROY Neighborhood Senior Center - 25V","State":"NY","Zip Code":11233,"lat":40.67512,"lng":-73.92468,"Type":"SENIOR_CENTER"},{"Address":"331 EAST 12TH STREET","Borough":"MANHATTAN","Location 1":"331 EAST 12TH STREET\nMANHATTAN, NY 10003\n(40.73039, -73.984409)","Name":"EDUCATIONAL ALLIANeighborhood Senior CenterE SIROVICH ISC - 35E","State":"NY","Zip Code":10003,"lat":40.73049,"lng":-73.98438,"Type":"SENIOR_CENTER"},{"Address":"180 MOTT STREET","Borough":"MANHATTAN","Location 1":"180 MOTT STREET\nMANHATTAN, NY 10012\n(40.720639, -73.995843)","Name":"MOTT STREET Neighborhood Senior Center - 34R","State":"NY","Zip Code":10012,"lat":40.72059,"lng":-73.9957699,"Type":"SENIOR_CENTER"},{"Address":"2298 WEST 8TH STREET","Borough":"BROOKLYN","Location 1":"2298 WEST 8TH STREET\nBROOKLYN, NY 11224\n(40.592482, -73.978542)","Name":"JCCGCI MARLBORO Neighborhood Senior Center - 26T","State":"NY","Zip Code":11224,"lat":40.59188,"lng":-73.9786699,"Type":"SENIOR_CENTER"},{"Address":"9000 SHORE ROAD","Borough":"BROOKLYN","Location 1":"9000 SHORE ROAD\nBROOKLYN, NY 11209\n(40.621988, -74.04016)","Name":"SHORE HILL Neighborhood Senior Center - 27K","State":"NY","Zip Code":11209,"lat":40.62197,"lng":-74.03887,"Type":"SENIOR_CENTER"},{"Address":"720 NEREID AVENUE","Borough":"BRONX","Location 1":"720 NEREID AVENUE\nBRONX, NY 10466\n(40.898255, -73.853788)","Name":"RAIN NEREID Neighborhood Senior Center - 14S","State":"NY","Zip Code":10466,"lat":40.89804,"lng":-73.85373,"Type":"SENIOR_CENTER"},{"Address":"485 KINGS HIGHWAY","Borough":"BROOKLYN","Location 1":"485 KINGS HIGHWAY\nBROOKLYN, NY 11223\n(40.604233, -73.97168)","Name":"SEPHARDIC MULTI SERVICE Neighborhood Senior Center - 28C","State":"NY","Zip Code":11223,"lat":40.60438,"lng":-73.97152,"Type":"SENIOR_CENTER"},{"Address":"220-01 LINDEN BOULVARD","Borough":"QUEENS","Location 1":"220 01\nQUEENS, NY 11411\n(43.32481, -73.68679)","Name":"ALPHA PHI ALPHA Neighborhood Senior Center - 44N","State":"NY","Zip Code":11411,"lat":40.6980704,"lng":-73.7384092,"Type":"SENIOR_CENTER"},{"Address":"230 KINGSTON AVENUE","Borough":"BROOKLYN","Location 1":"230 KINGSTON AVENUE\nBROOKLYN, NY 11213\n(40.671605, -73.941979)","Name":"CCNS ST LOUIS Neighborhood Senior Center - 25H","State":"NY","Zip Code":11213,"lat":40.67161,"lng":-73.94228,"Type":"SENIOR_CENTER"},{"Address":"236 EAST TREMONT AVENUE","Borough":"BRONX","Location 1":"236 EAST TREMONT AVENUE\nBRONX, NY 10457\n(40.848782, -73.904272)","Name":"BRONXWORKS EAST CONeighborhood Senior CenterOURSE Neighborhood Senior Center - 13M","State":"NY","Zip Code":10457,"lat":40.84877,"lng":-73.90456,"Type":"SENIOR_CENTER"},{"Address":"2600 OCEAN AVENUE","Borough":"BROOKLYN","Location 1":"2600 OCEAN AVENUE\nBROOKLYN, NY 11229\n(40.597997, -73.951153)","Name":"JCCGCI JAY HARAMA Neighborhood Senior Center - 26S","State":"NY","Zip Code":11229,"lat":40.59807,"lng":-73.9513599,"Type":"SENIOR_CENTER"},{"Address":"103 EAST 7TH STREET","Borough":"MANHATTAN","Location 1":"103 EAST 7TH STREET\nMANHATTAN, NY 10009\n(40.726731, -73.985156)","Name":"JOHN PAUL II FRIENDSHIP Neighborhood Senior Center - 34S","State":"NY","Zip Code":10009,"lat":40.72669,"lng":-73.98479,"Type":"SENIOR_CENTER"},{"Address":"483 ALBANY AVENUE","Borough":"BROOKLYN","Location 1":"483 ALBANY AVENUE\nBROOKLYN, NY 11203\n(40.663209, -73.939992)","Name":"SHOLOM Neighborhood Senior Center - 25K","State":"NY","Zip Code":11203,"lat":40.66334,"lng":-73.93983,"Type":"SENIOR_CENTER"},{"Address":"20 WASHINGTON SQUARE NORTH","Borough":"MANHATTAN","Location 1":"20 WASHINGTON SQUARE NORTH\nMANHATTAN, NY 10011\n(40.731748, -73.997688)","Name":"CENTER ON THE SQUARE Neighborhood Senior Center - 33U","State":"NY","Zip Code":10011,"lat":40.73194,"lng":-73.99777,"Type":"SENIOR_CENTER"},{"Address":"550 OCEAN PARKWAY","Borough":"BROOKLYN","Location 1":"550 OCEAN PARKWAY\nBROOKLYN, NY 11218\n(40.6346, -73.972706)","Name":"SR CITIZENS LEAGUE OF FLATBUSH SR CENTER - 27C","State":"NY","Zip Code":11218,"lat":40.63464,"lng":-73.97296,"Type":"SENIOR_CENTER"},{"Address":"420 WEST 145 STREET","Borough":"MANHATTAN","Location 1":"420 WEST 145 STREET\nMANHATTAN, NY 10031\n(40.824296, -73.945375)","Name":"CONVENT AV BAPTIST CHURCH HAMILTON GRANGE Neighborhood Senior Center - 35A","State":"NY","Zip Code":10031,"lat":40.82439,"lng":-73.94602,"Type":"SENIOR_CENTER"},{"Address":"720 EAST NEW YORK AVENUE","Borough":"BROOKLYN","Location 1":"720 EAST NEW YORK AVENUE\nBROOKLYN, NY 11203\n(40.662303, -73.938865)","Name":"FT GREENE BLENMAN Neighborhood Senior Center - 25Q","State":"NY","Zip Code":11203,"lat":40.66214,"lng":-73.93828,"Type":"SENIOR_CENTER"},{"Address":"250 WEST 65TH STREET","Borough":"MANHATTAN","Location 1":"250 WEST 65TH STREET\nMANHATTAN, NY 10023\n(40.774914, -73.986651)","Name":"WEST 65TH STREET CENTER - 34N","State":"NY","Zip Code":10023,"lat":40.77492,"lng":-73.98712,"Type":"SENIOR_CENTER"},{"Address":"307 EAST 116TH STREET","Borough":"MANHATTAN","Location 1":"307 EAST 116TH STREET\nMANHATTAN, NY 10029\n(40.796776, -73.937232)","Name":"CORSI HOUSE Neighborhood Senior Center - 34Z","State":"NY","Zip Code":10029,"lat":40.79693,"lng":-73.93717,"Type":"SENIOR_CENTER"},{"Address":"1220 EAST 229TH STREET","Borough":"BRONX","Location 1":"1220 EAST 229TH STREET\nBRONX, NY 10466\n(40.885032, -73.843148)","Name":"JASA BAY EDEN Neighborhood Senior Center - 14C","State":"NY","Zip Code":10466,"lat":40.88448,"lng":-73.84281,"Type":"SENIOR_CENTER"},{"Address":"372 EAST 152ND STREET","Borough":"BRONX","Location 1":"372 EAST 152ND STREET\nBRONX, NY 10455\n(40.818496, -73.917848)","Name":"MELROSE MOTT HAVEN Neighborhood Senior Center - 13R","State":"NY","Zip Code":10455,"lat":40.81835,"lng":-73.91776,"Type":"SENIOR_CENTER"},{"Address":"887 SOUTHERN BOULEVARD","Borough":"BRONX","Location 1":"887 SOUTHERN BOULEVARD\nBRONX, NY 10459\n(40.818823, -73.893637)","Name":"SEBCO Neighborhood Senior Center - 14Z","State":"NY","Zip Code":10459,"lat":40.81904,"lng":-73.8937,"Type":"SENIOR_CENTER"},{"Address":"4111 BROADWAY","Borough":"MANHATTAN","Location 1":"4111 BROADWAY\nMANHATTAN, NY 10033\n(40.845161, -73.938751)","Name":"ARC XVI FT WASHINGTON Neighborhood Senior Center - 30E","State":"NY","Zip Code":10033,"lat":40.84512,"lng":-73.9389999,"Type":"SENIOR_CENTER"},{"Address":"3333 BROADWAY","Borough":"MANHATTAN","Location 1":"3333 BROADWAY\nMANHATTAN, NY 10031\n(40.820065, -73.955223)","Name":"UBA MANHATTANVILLE RIVERSIDE Neighborhood Senior Center - 358","State":"NY","Zip Code":10031,"lat":40.8198099,"lng":-73.95635,"Type":"SENIOR_CENTER"},{"Address":"3540 BIVONA STREET","Borough":"BRONX","Location 1":"3540 BIVONA STREET\nBRONX, NY 10475\n(40.88325, -73.833305)","Name":"RAIN BOSTON SECOR Neighborhood Senior Center - 14X","State":"NY","Zip Code":10475,"lat":40.88288,"lng":-73.8325,"Type":"SENIOR_CENTER"},{"Address":"195 LINDEN STREET","Borough":"BROOKLYN","Location 1":"195 LINDEN STREET\nBROOKLYN, NY 11221\n(40.69539, -73.917459)","Name":"HOPE GARDENS Neighborhood Senior Center - 27V","State":"NY","Zip Code":11221,"lat":40.69554,"lng":-73.91753,"Type":"SENIOR_CENTER"},{"Address":"351 EAST 74TH STREET","Borough":"MANHATTAN","Location 1":"351 EAST 74TH STREET\nMANHATTAN, NY 10021\n(40.769324, -73.955536)","Name":"CARTER BURDEN LUNeighborhood Senior CenterHEON CLUB Neighborhood Senior Center - 317","State":"NY","Zip Code":10021,"lat":40.7694199,"lng":-73.95552,"Type":"SENIOR_CENTER"},{"Address":"1181 NELSON AVENUE","Borough":"BRONX","Location 1":"1181 NELSON AVENUE\nBRONX, NY 10452\n(40.837153, -73.925749)","Name":"PSS HIGHBRIDGE Neighborhood Senior Center - 14N","State":"NY","Zip Code":10452,"lat":40.83725,"lng":-73.92582,"Type":"SENIOR_CENTER"},{"Address":"5625 ARLINGTON AVENUE","Borough":"BRONX","Location 1":"5625 ARLINGTON AVENUE\nBRONX, NY 10471\n(40.905049, -73.907113)","Name":"RIVERDALE Y Neighborhood Senior Center - 15C","State":"NY","Zip Code":10471,"lat":40.90518,"lng":-73.90798,"Type":"SENIOR_CENTER"},{"Address":"3300 CONEY ISLAND AVENUE","Borough":"BROOKLYN","Location 1":"3300 CONEY ISLAND AVENUE\nBROOKLYN, NY 11235\n(40.575801, -73.959469)","Name":"JASA SHOREFRONT Neighborhood Senior Center - 26N","State":"NY","Zip Code":11235,"lat":40.57565,"lng":-73.96001,"Type":"SENIOR_CENTER"},{"Address":"232 EAST BROADWAY","Borough":"MANHATTAN","Location 1":"232 EAST BROADWAY\nMANHATTAN, NY 10002\n(40.71436, -73.986496)","Name":"WHITAKER Neighborhood Senior Center - 33A","State":"NY","Zip Code":10002,"lat":40.71449,"lng":-73.9864599,"Type":"SENIOR_CENTER"},{"Address":"460 DUMONT AVENUE","Borough":"BROOKLYN","Location 1":"460 DUMONT AVENUE\nBROOKLYN, NY 11212\n(40.665101, -73.902554)","Name":"ROSETTA GASTON Neighborhood Senior Center - 27P","State":"NY","Zip Code":11212,"lat":40.66504,"lng":-73.90212,"Type":"SENIOR_CENTER"},{"Address":"176 JAVA STREET","Borough":"BROOKLYN","Location 1":"176 JAVA STREET\nBROOKLYN, NY 11222\n(40.731703, -73.953548)","Name":"KRAKUS LUNeighborhood Senior CenterHEON CLUB Neighborhood Senior Center - 26Y","State":"NY","Zip Code":11222,"lat":40.73161,"lng":-73.95353,"Type":"SENIOR_CENTER"},{"Address":"18 MOUNT MORRIS PARK WEST","Borough":"MANHATTAN","Location 1":"18 MOUNT MORRIS PARK WEST\nMANHATTAN, NY 10027\n(40.805223, -73.945179)","Name":"PSS HARLEM Neighborhood Senior Center - 34T","State":"NY","Zip Code":10027,"lat":40.80449,"lng":-73.94367,"Type":"SENIOR_CENTER"},{"Address":"1297 ARTHUR KILL ROAD","Borough":"STATEN ISLAND","Location 1":"1297 ARTHUR KILL ROAD\nSTATEN ISLAND, NY 10312\n(40.565412, -74.183343)","Name":"JCC SOUTH SHORE Neighborhood Senior Center - 548","State":"NY","Zip Code":10312,"lat":40.5655921,"lng":-74.1830613,"Type":"SENIOR_CENTER"},{"Address":"98-19 ASTORIA BOULVARD","Borough":"QUEENS","Location 1":"98 19\nQUEENS, NY 11369\n(40.599724, -73.822513)","Name":"ELMCOR Neighborhood Senior Center - 42Y","State":"NY","Zip Code":11369,"lat":40.76372,"lng":-73.87161,"Type":"SENIOR_CENTER"},{"Address":"3601 SURF AVENUE","Borough":"BROOKLYN","Location 1":"3601 SURF AVENUE\nBROOKLYN, NY 11224\n(40.573258, -74.002159)","Name":"JASA SCHEUER HOUSE OF CI Neighborhood Senior Center - 26L","State":"NY","Zip Code":11224,"lat":40.57345,"lng":-74.00182,"Type":"SENIOR_CENTER"},{"Address":"27 BARROW STREET","Borough":"MANHATTAN","Location 1":"27 BARROW STREET\nMANHATTAN, NY 10014\n(40.732495, -74.003108)","Name":"JUDITH C WHITE Neighborhood Senior Center - 33Y","State":"NY","Zip Code":10014,"lat":40.73242,"lng":-74.00315,"Type":"SENIOR_CENTER"},{"Address":"55 PIERREPONT STREET","Borough":"BROOKLYN","Location 1":"55 PIERREPONT STREET\nBROOKLYN, NY 11201\n(40.695782, -73.995153)","Name":"CCNS ST CHARLES Neighborhood Senior Center - 25G","State":"NY","Zip Code":11201,"lat":40.69588,"lng":-73.99512,"Type":"SENIOR_CENTER"},{"Address":"10315 FARRAGUT ROAD","Borough":"BROOKLYN","Location 1":"10315 FARRAGUT ROAD\nBROOKLYN, NY 11236\n(40.649685, -73.899207)","Name":"ABE STARK Neighborhood Senior Center - 27A","State":"NY","Zip Code":11236,"lat":40.64985,"lng":-73.8993,"Type":"SENIOR_CENTER"},{"Address":"4912 14TH AVENUE","Borough":"BROOKLYN","Location 1":"4912 14TH AVENUE\nBROOKLYN, NY 11219\n(40.633629, -73.989982)","Name":"BORO PARK Y Neighborhood Senior Center - 24U","State":"NY","Zip Code":11219,"lat":40.63347,"lng":-73.99042,"Type":"SENIOR_CENTER"},{"Address":"950 UNION AVENUE","Borough":"BRONX","Location 1":"950 UNION AVENUE\nBRONX, NY 10459\n(40.822748, -73.901851)","Name":"PSS DAVIDSON Neighborhood Senior Center - 14M","State":"NY","Zip Code":10459,"lat":40.82309,"lng":-73.90154,"Type":"SENIOR_CENTER"},{"Address":"189 ALLEN STREET","Borough":"MANHATTAN","Location 1":"189 ALLEN STREET\nMANHATTAN, NY 10002\n(40.722183, -73.98907)","Name":"UNIVERSITY SETTLEMENT Neighborhood Senior Center - 363","State":"NY","Zip Code":10002,"lat":40.72209,"lng":-73.98943,"Type":"SENIOR_CENTER"},{"Address":"2049 BARTOW AVENUE","Borough":"BRONX","Location 1":"2049 BARTOW AVENUE\nBRONX, NY 10475\n(40.869524, -73.828778)","Name":"JASA CO-OP CITY Neighborhood Senior Center - 13Z","State":"NY","Zip Code":10475,"lat":40.86963,"lng":-73.82908,"Type":"SENIOR_CENTER"},{"Address":"179 NORTH 6TH STREET","Borough":"BROOKLYN","Location 1":"179 NORTH 6TH STREET\nBROOKLYN, NY 11212\n(40.71647, -73.957028)","Name":"CCNS NORTHSIDE Neighborhood Senior Center - 25E","State":"NY","Zip Code":11212,"lat":40.71675,"lng":-73.9572,"Type":"SENIOR_CENTER"},{"Address":"2702 LINDEN BOULEVARD","Borough":"BROOKLYN","Location 1":"2702 LINDEN BOULEVARD\nBROOKLYN, NY 11208\n(40.669152, -73.863822)","Name":"FT GREENE TERESA MOORE Neighborhood Senior Center - 25Z","State":"NY","Zip Code":11208,"lat":40.6689099,"lng":-73.8646,"Type":"SENIOR_CENTER"},{"Address":"280 CHERRY STREET","Borough":"MANHATTAN","Location 1":"280 CHERRY STREET\nMANHATTAN, NY 10002\n(40.711368, -73.988385)","Name":"LA GUARDIA Neighborhood Senior Center - 34Q","State":"NY","Zip Code":10002,"lat":40.7115045,"lng":-73.9884277,"Type":"SENIOR_CENTER"},{"Address":"625 CASTLE HILL AVENUE","Borough":"BRONX","Location 1":"625 CASTLE HILL AVENUE\nBRONX, NY 10473\n(40.820013, -73.848261)","Name":"KIPS BAY CASTLE HILL Neighborhood Senior Center - 14F","State":"NY","Zip Code":10473,"lat":40.8196,"lng":-73.84882,"Type":"SENIOR_CENTER"},{"Address":"1776 STORY AVENUE","Borough":"BRONX","Location 1":"1776 STORY AVENUE\nBRONX, NY 10472\n(40.823343, -73.86525)","Name":"IPR\/HE JAMES MONROE Neighborhood Senior Center - 13U","State":"NY","Zip Code":10472,"lat":40.82312,"lng":-73.86529,"Type":"SENIOR_CENTER"},{"Address":"1068 GERARD AVENUE","Borough":"BRONX","Location 1":"1068 GERARD AVENUE\nBRONX, NY 10452\n(40.832281, -73.922142)","Name":"HOPE OF ISRAEL Neighborhood Senior Center - 13S","State":"NY","Zip Code":10452,"lat":40.83217,"lng":-73.92205,"Type":"SENIOR_CENTER"},{"Address":"196 ALBANY AVENUE","Borough":"BROOKLYN","Location 1":"196 ALBANY AVENUE\nBROOKLYN, NY 11213\n(40.674, -73.938963)","Name":"FT GREENE ALBANY Neighborhood Senior Center - 25P","State":"NY","Zip Code":11213,"lat":40.67402,"lng":-73.93913,"Type":"SENIOR_CENTER"},{"Address":"1380 METROPOLITAN AVENUE","Borough":"BRONX","Location 1":"1380 METROPOLITAN AVENUE\nBRONX, NY 10462\n(40.835075, -73.860977)","Name":"RAIN PARKCHESTER Neighborhood Senior Center - 14T","State":"NY","Zip Code":10462,"lat":40.83498,"lng":-73.86086,"Type":"SENIOR_CENTER"},{"Address":"5602 11TH AVENUE","Borough":"BROOKLYN","Location 1":"5602 11TH AVENUE\nBROOKLYN, NY 11219\n(40.633538, -74.00085)","Name":"BORO PARK Neighborhood Senior Center - 22U","State":"NY","Zip Code":11219,"lat":40.63371,"lng":-74.0009,"Type":"SENIOR_CENTER"},{"Address":"1301 AMSTERDAM AVENUE","Borough":"MANHATTAN","Location 1":"1301 AMSTERDAM AVENUE\nMANHATTAN, NY 10027\n(40.812333, -73.957034)","Name":"JACKIE ROBINSON Neighborhood Senior Center - 31T","State":"NY","Zip Code":10027,"lat":40.8118,"lng":-73.95657,"Type":"SENIOR_CENTER"},{"Address":"23-56 BROADWAY","Borough":"QUEENS","Location 1":"23 56\nQUEENS, NY 11106\n(40.590208, -73.786066)","Name":"CCNS DELLAMONICA-STEINWAY Neighborhood Senior Center - 42X","State":"NY","Zip Code":11106,"lat":40.7539406,"lng":-73.9391166,"Type":"SENIOR_CENTER"},{"Address":"2716 HEALY AVENUE","Borough":"QUEENS","Location 1":"2716 HEALY AVENUE\nQUEENS, NY 11691\n(40.604154, -73.765743)","Name":"YOUNG ISRAEL WAVECREST & BAYSWATER Neighborhood Senior Center - 44V","State":"NY","Zip Code":11691,"lat":40.6046,"lng":-73.76581,"Type":"SENIOR_CENTER"},{"Address":"120 ANDERSON AVENUE","Borough":"STATEN ISLAND","Location 1":"120 ANDERSON AVENUE\nSTATEN ISLAND, NY 10302\n(40.634937, -74.134403)","Name":"ANDERSON Neighborhood Senior Center - 546","State":"NY","Zip Code":10302,"lat":40.63471,"lng":-74.13452,"Type":"SENIOR_CENTER"},{"Address":"25 CARMINE STREET","Borough":"MANHATTAN","Location 1":"25 CARMINE STREET\nMANHATTAN, NY 10014\n(40.730288, -74.002592)","Name":"OUR LADY OF POMPEII Neighborhood Senior Center - 33Z","State":"NY","Zip Code":10014,"lat":40.73035,"lng":-74.00279,"Type":"SENIOR_CENTER"},{"Address":"84 VERMILYEA AVENUE","Borough":"MANHATTAN","Location 1":"84 VERMILYEA AVENUE\nMANHATTAN, NY 10034\n(40.865957, -73.922789)","Name":"RAIN INWOOD Neighborhood Senior Center - 34U","State":"NY","Zip Code":10034,"lat":40.86596,"lng":-73.92314,"Type":"SENIOR_CENTER"},{"Address":"136-18 39TH AVENUE","Borough":"QUEENS","Location 1":"136 18 39TH AVENUE\nQUEENS, NY 11354\n(40.771119, -73.747501)","Name":"CPC NAN SHAN Neighborhood Senior Center - 488","State":"NY","Zip Code":11354,"lat":40.7602023,"lng":-73.8297434,"Type":"SENIOR_CENTER"},{"Address":"644 ADEE AVENUE","Borough":"BRONX","Location 1":"644 ADEE AVENUE\nBRONX, NY 10467\n(40.869681, -73.869151)","Name":"PSS PARKSIDE Neighborhood Senior Center - 14K","State":"NY","Zip Code":10467,"lat":40.86953,"lng":-73.86919,"Type":"SENIOR_CENTER"},{"Address":"2424 BOSTON ROAD","Borough":"BRONX","Location 1":"2424 BOSTON ROAD\nBRONX, NY 10467\n(40.861716, -73.866589)","Name":"RAIN BOSTON ROAD Neighborhood Senior Center - 14U","State":"NY","Zip Code":10467,"lat":40.86199,"lng":-73.86614,"Type":"SENIOR_CENTER"},{"Address":"735 EAST 152ND STREET","Borough":"BRONX","Location 1":"735 EAST 152ND STREET\nBRONX, NY 10455\n(40.815947, -73.907639)","Name":"NEIGHBORHOOD SHOPP DOUGLAS LEON - 14H","State":"NY","Zip Code":10455,"lat":40.81608,"lng":-73.9072599,"Type":"SENIOR_CENTER"},{"Address":"189 GORDON STREET","Borough":"STATEN ISLAND","Location 1":"189 GORDON STREET\nSTATEN ISLAND, NY 10304\n(40.622667, -74.082928)","Name":"STAPLETON Neighborhood Senior Center - 547","State":"NY","Zip Code":10304,"lat":40.62301,"lng":-74.08243,"Type":"SENIOR_CENTER"},{"Address":"1694 OCEAN AVENUE","Borough":"BROOKLYN","Location 1":"1694 OCEAN AVENUE\nBROOKLYN, NY 11230\n(40.620678, -73.955427)","Name":"YOUNG ISRAEL SR SERVICES Neighborhood Senior Center - 27T","State":"NY","Zip Code":11230,"lat":40.62056,"lng":-73.95562,"Type":"SENIOR_CENTER"},{"Address":"1175 GATES AVENUE","Borough":"BROOKLYN","Location 1":"1175 GATES AVENUE\nBROOKLYN, NY 11221\n(40.691795, -73.919805)","Name":"ROUNDTABLE Neighborhood Senior Center - 27B","State":"NY","Zip Code":11221,"lat":40.69173,"lng":-73.92005,"Type":"SENIOR_CENTER"},{"Address":"3024 WEST 24TH STREET","Borough":"BROOKLYN","Location 1":"3024 WEST 24TH STREET\nBROOKLYN, NY 11224\n(40.573646, -73.990702)","Name":"JCCGCI HABER HOUSE Neighborhood Senior Center - 26R","State":"NY","Zip Code":11224,"lat":40.57294,"lng":-73.99079,"Type":"SENIOR_CENTER"},{"Address":"5701 AVENUE H","Borough":"BROOKLYN","Location 1":"5701 AVENUE\nBROOKLYN, NY 11234\n(40.61494, -73.91901)","Name":"CCNS GLENWOOD Neighborhood Senior Center - 24Y","State":"NY","Zip Code":11234,"lat":40.62953,"lng":-73.92334,"Type":"SENIOR_CENTER"},{"Address":"515 JACKSON AVENUE","Borough":"BRONX","Location 1":"515 JACKSON AVENUE\nBRONX, NY 10455\n(40.812244, -73.90943)","Name":"BRONXWORKS E. ROBERT MOORE Neighborhood Senior Center - 13L","State":"NY","Zip Code":10455,"lat":40.81247,"lng":-73.90963,"Type":"SENIOR_CENTER"},{"Address":"141 WEST 73RD STREET","Borough":"MANHATTAN","Location 1":"141 WEST 73RD STREET\nMANHATTAN, NY 10023\n(40.778779, -73.979911)","Name":"FIND AID HAMILTON ISC - 35F","State":"NY","Zip Code":10023,"lat":40.77891,"lng":-73.97995,"Type":"SENIOR_CENTER"},{"Address":"7802 BAY PARKWAY","Borough":"BROOKLYN","Location 1":"7802 BAY PARKWAY\nBROOKLYN, NY 11214\n(40.606107, -73.989483)","Name":"BENSONHURST Neighborhood Senior Center - 25N","State":"NY","Zip Code":11214,"lat":40.60627,"lng":-73.98961,"Type":"SENIOR_CENTER"},{"Address":"7907 NEW UTRECHT AVENUE","Borough":"BROOKLYN","Location 1":"7907 NEW UTRECHT AVENUE\nBROOKLYN, NY 11214\n(40.612348, -74.000935)","Name":"HOMECREST BENSONHURST Neighborhood Senior Center - 26A","State":"NY","Zip Code":11214,"lat":40.61225,"lng":-74.0008,"Type":"SENIOR_CENTER"},{"Address":"2880 WEST 12TH STREET","Borough":"BROOKLYN","Location 1":"2880 WEST 12TH STREET\nBROOKLYN, NY 11224\n(40.577403, -73.979605)","Name":"JASA LUNA PARK Neighborhood Senior Center - 26K","State":"NY","Zip Code":11224,"lat":40.57734,"lng":-73.98027,"Type":"SENIOR_CENTER"},{"Address":"3880 SEDGWICK AVENUE","Borough":"BRONX","Location 1":"3880 SEDGWICK AVENUE\nBRONX, NY 10463\n(40.882895, -73.893688)","Name":"JASA VAN CORTLANDT Neighborhood Senior Center - 13Y","State":"NY","Zip Code":10463,"lat":40.88273,"lng":-73.89378,"Type":"SENIOR_CENTER"},{"Address":"70 NEW LANE","Borough":"STATEN ISLAND","Location 1":"70 NEW LANE\nSTATEN ISLAND, NY 10305\n(40.612809, -74.062438)","Name":"CASC NEW LANE Neighborhood Senior Center - 549","State":"NY","Zip Code":10305,"lat":40.6124384,"lng":-74.0630591,"Type":"SENIOR_CENTER"},{"Address":"3304 CLARENDON ROAD","Borough":"BROOKLYN","Location 1":"3304 CLARENDON ROAD\nBROOKLYN, NY 11203\n(40.643446, -73.94553)","Name":"FT GREENE REMSEN Neighborhood Senior Center - 25X","State":"NY","Zip Code":11203,"lat":40.64327,"lng":-73.94549,"Type":"SENIOR_CENTER"},{"Address":"47 VANDALIA AVENUE","Borough":"BROOKLYN","Location 1":"47 VANDALIA AVENUE\nBROOKLYN, NY 11239\n(40.64987, -73.886608)","Name":"VANDALIA Neighborhood Senior Center - 24Q","State":"NY","Zip Code":11239,"lat":40.64982,"lng":-73.88696,"Type":"SENIOR_CENTER"},{"Address":"150 EAST 121 STREET","Borough":"MANHATTAN","Location 1":"150 EAST 121 STREET\nMANHATTAN, NY 10035\n(40.801479, -73.938485)","Name":"EAST HARLEM Neighborhood Senior Center - 32U","State":"NY","Zip Code":10035,"lat":40.8012881,"lng":-73.938403,"Type":"SENIOR_CENTER"},{"Address":"711C SEAGIRT AVENUE","Borough":"QUEENS","Location 1":"711C SEAGIRT AVENUE\nQUEENS, NY 11691\n(40.595986, -73.741905)","Name":"JASA ROY REUTHER Neighborhood Senior Center - 42J","State":"NY","Zip Code":11691,"lat":40.5958572,"lng":-73.7423232,"Type":"SENIOR_CENTER"},{"Address":"9 NOLL STREET","Borough":"Brooklyn","Location 1":"9 NOLL STREET\nBrooklyn, NY 11206\n(40.700115, -73.935827)","Name":"RIDGEWOOD BUSHWICK DIANA H JONES Neighborhood Senior Center - 26Z","State":"NY","Zip Code":11206,"lat":40.7002,"lng":-73.93587,"Type":"SENIOR_CENTER"},{"Address":"120 WEST 140TH STREET","Borough":"MANHATTAN","Location 1":"120 WEST 140TH STREET\nMANHATTAN, NY 10030\n(40.817854, -73.939901)","Name":"ARC CENTRAL HARLEM Neighborhood Senior Center - 35B","State":"NY","Zip Code":10030,"lat":40.81774,"lng":-73.93995,"Type":"SENIOR_CENTER"},{"Address":"430 DUMONT AVENUE","Borough":"BROOKLYN","Location 1":"430 DUMONT AVENUE\nBROOKLYN, NY 11212\n(40.664938, -73.903695)","Name":"VAN DYKE Neighborhood Senior Center - 27S","State":"NY","Zip Code":11212,"lat":40.66307,"lng":-73.9171099,"Type":"SENIOR_CENTER"},{"Address":"1960 EAST 7TH STREET","Borough":"BROOKLYN","Location 1":"1960 EAST 7TH STREET\nBROOKLYN, NY 11223\n(40.602884, -73.965032)","Name":"JCCGCI OCEAN PARKWAY Neighborhood Senior Center - 26V","State":"NY","Zip Code":11223,"lat":40.60286,"lng":-73.96516,"Type":"SENIOR_CENTER"},{"Address":"131 BEACH 19TH STREET","Borough":"QUEENS","Location 1":"131 BEACH 19TH STREET\nQUEENS, NY 11691\n(40.593739, -73.753176)","Name":"JASA BROOKDALE Neighborhood Senior Center - 44H","State":"NY","Zip Code":11691,"lat":40.5934676,"lng":-73.7533149,"Type":"SENIOR_CENTER"},{"Address":"3001 WEST 37TH STREET","Borough":"BROOKLYN","Location 1":"3001 WEST 37TH STREET\nBROOKLYN, NY 11224\n(40.572645, -74.002449)","Name":"JCCGCI ISC - 28B","State":"NY","Zip Code":11224,"lat":40.5727199,"lng":-74.00227,"Type":"SENIOR_CENTER"},{"Address":"68-07 BURNS STREET","Borough":"QUEENS","Location 1":"68 07 BURNS STREET\nQUEENS, NY 11375\n(40.718868, -73.843685)","Name":"YOUNG ISRAEL FOREST HILLS Neighborhood Senior Center - 497","State":"NY","Zip Code":11375,"lat":40.72166,"lng":-73.85175,"Type":"SENIOR_CENTER"},{"Address":"221 WEST 107TH STREET","Borough":"MANHATTAN","Location 1":"221 WEST 107TH STREET\nMANHATTAN, NY 10025\n(40.801662, -73.966531)","Name":"ABSW Neighborhood Senior Center - 30P","State":"NY","Zip Code":10025,"lat":40.80178,"lng":-73.96654,"Type":"SENIOR_CENTER"},{"Address":"1970 AMSTERDAM AVENUE","Borough":"MANHATTAN","Location 1":"1970 AMSTERDAM AVENUE\nMANHATTAN, NY 10032\n(40.83312, -73.941851)","Name":"UBA MARY BETHUNE Neighborhood Senior Center - 361","State":"NY","Zip Code":10032,"lat":40.83332,"lng":-73.94203,"Type":"SENIOR_CENTER"},{"Address":"460 ATLANTIC AVENUE","Borough":"BROOKLYN","Location 1":"460 ATLANTIC AVENUE\nBROOKLYN, NY 11217\n(40.686222, -73.983007)","Name":"RAICES TIMES PLAZA Neighborhood Senior Center - 27H","State":"NY","Zip Code":11217,"lat":40.68607,"lng":-73.98303,"Type":"SENIOR_CENTER"},{"Address":"90 BENNETT AVENUE","Borough":"MANHATTAN","Location 1":"90 BENNETT AVENUE\nMANHATTAN, NY 10033\n(40.853027, -73.935362)","Name":"MORIAH OLDER ADULT LUNeighborhood Senior CenterHEON Neighborhood Senior Center - 30C","State":"NY","Zip Code":10033,"lat":40.85311,"lng":-73.93547,"Type":"SENIOR_CENTER"},{"Address":"80 EAST 181ST STREET","Borough":"BRONX","Location 1":"80 EAST 181ST STREET\nBRONX, NY 10453\n(40.854856, -73.903464)","Name":"BRONXWORKS ISC - 13G","State":"NY","Zip Code":10453,"lat":40.85504,"lng":-73.90431,"Type":"SENIOR_CENTER"},{"Address":"787 EAST 149 STREET","Borough":"BRONX","Location 1":"787 EAST 149 STREET\nBRONX, NY 10455\n(40.812751, -73.90672)","Name":"IPR\/HE BETANeighborhood Senior CenterES Neighborhood Senior Center - 13X","State":"NY","Zip Code":10455,"lat":40.81295,"lng":-73.90697,"Type":"SENIOR_CENTER"},{"Address":"3035 MIDDLETOWN ROAD","Borough":"BRONX","Location 1":"3035 MIDDLETOWN ROAD\nBRONX, NY 10461\n(40.844231, -73.829195)","Name":"RAIN MIDDLETOWN Neighborhood Senior Center - 14R","State":"NY","Zip Code":10461,"lat":40.84452,"lng":-73.82893,"Type":"SENIOR_CENTER"},{"Address":"114 TAYLOR STREET","Borough":"BROOKLYN","Location 1":"114 TAYLOR STREET\nBROOKLYN, NY 11211\n(40.706543, -73.962123)","Name":"INDEPENDENeighborhood Senior CenterE Neighborhood Senior Center - 24R","State":"NY","Zip Code":11211,"lat":40.7055,"lng":-73.96344,"Type":"SENIOR_CENTER"},{"Address":"966 FULTON STREET","Borough":"BROOKLYN","Location 1":"966 FULTON STREET\nBROOKLYN, NY 11238\n(40.682499, -73.962154)","Name":"FT GREENE GRACE AGARD HAREWOOD Neighborhood Senior Center - 25R","State":"NY","Zip Code":11238,"lat":40.68238,"lng":-73.96226,"Type":"SENIOR_CENTER"},{"Address":"312 EAST 109TH STREET","Borough":"MANHATTAN","Location 1":"312 EAST 109TH STREET\nMANHATTAN, NY 10029\n(40.792336, -73.9405)","Name":"CARTER BURDEN LEONARD COVELLO ISC - 35D","State":"NY","Zip Code":10029,"lat":40.79216,"lng":-73.94033,"Type":"SENIOR_CENTER"},{"Address":"895 PENNYSYLVANNIA AVENUE","Borough":"BROOKLYN","Location 1":"895 PENNYSYLVANNIA AVENUE\nBROOKLYN, NY 11207\n(40.669222, -73.885509)","Name":"PENN WORTMAN Neighborhood Senior Center - 25A","State":"NY","Zip Code":11207,"lat":40.66595,"lng":-73.89254,"Type":"SENIOR_CENTER"},{"Address":"161 CORBIN PLACE","Borough":"BROOKLYN","Location 1":"161 CORBIN PLACE\nBROOKLYN, NY 11235\n(40.577747, -73.95412)","Name":"JASA SENIOR ALLIANeighborhood Senior CenterE Neighborhood Senior Center - 26M","State":"NY","Zip Code":11235,"lat":40.57767,"lng":-73.95397,"Type":"SENIOR_CENTER"},{"Address":"325 EAST 156TH STREET","Borough":"BRONX","Location 1":"325 EAST 156TH STREET\nBRONX, NY 10451\n(40.821528, -73.918453)","Name":"PSS ANDREW JACKSON Neighborhood Senior Center - 14L","State":"NY","Zip Code":10451,"lat":40.82155,"lng":-73.91776,"Type":"SENIOR_CENTER"},{"Address":"1230 63RD STREET","Borough":"BROOKLYN","Location 1":"1230 63RD STREET\nBROOKLYN, NY 11219\n(40.62797, -74.00167)","Name":"CCNS NARROWS Neighborhood Senior Center - 258","State":"NY","Zip Code":11219,"lat":40.6280245,"lng":-74.0020428,"Type":"SENIOR_CENTER"},{"Address":"80 PITT STREET","Borough":"MANHATTAN","Location 1":"80 PITT STREET\nMANHATTAN, NY 10002\n(40.718621, -73.98232)","Name":"GRAND COALITION OF SENIORS Neighborhood Senior Center - 33V","State":"NY","Zip Code":10002,"lat":40.71817,"lng":-73.98178,"Type":"SENIOR_CENTER"},{"Address":"1466 MANOR ROAD","Borough":"STATEN ISLAND","Location 1":"1466 MANOR ROAD\nSTATEN ISLAND, NY 10314\n(40.592174, -74.126271)","Name":"JCC OF STATEN ISLAND ISC - 544","State":"NY","Zip Code":10314,"lat":40.59749,"lng":-74.12392,"Type":"SENIOR_CENTER"},{"Address":"2405 SOUTHERN BOULEVARD","Borough":"BRONX","Location 1":"2405 SOUTHERN BOULEVARD\nBRONX, NY 10458\n(40.853724, -73.881571)","Name":"SEBCO MT CARMEL Neighborhood Senior Center - 15A","State":"NY","Zip Code":10458,"lat":40.85387,"lng":-73.88179,"Type":"SENIOR_CENTER"},{"Address":"3450 DEKALB AVENUE","Borough":"BRONX","Location 1":"3450 DEKALB AVENUE\nBRONX, NY 10467\n(40.881515, -73.881279)","Name":"MOSHOLU MONTEFIORE Neighborhood Senior Center - 13P","State":"NY","Zip Code":10467,"lat":40.88126,"lng":-73.88139,"Type":"SENIOR_CENTER"},{"Address":"200 WEST TREMONT AVENUE","Borough":"BRONX","Location 1":"200 WEST TREMONT AVENUE\nBRONX, NY 10453\n(40.852025, -73.917069)","Name":"BRONXWORKS HEIGHTS Neighborhood Senior Center - 13K","State":"NY","Zip Code":10453,"lat":40.85187,"lng":-73.9171,"Type":"SENIOR_CENTER"},{"Address":"319 STANHOPE STREET","Borough":"BROOKLYN","Location 1":"319 STANHOPE STREET\nBROOKLYN, NY 11237\n(40.703065, -73.918105)","Name":"RIDGEWOOD BUSHWICK ISC - 28G","State":"NY","Zip Code":11237,"lat":40.70297,"lng":-73.91839,"Type":"SENIOR_CENTER"},{"Address":"80 SEIGEL STREET","Borough":"BROOKLYN","Location 1":"80 SEIGEL STREET\nBROOKLYN, NY 11206\n(40.7044, -73.943426)","Name":"BORINQUEN PLAZA NUTRITION Neighborhood Senior Center - 270","State":"NY","Zip Code":11206,"lat":40.7043,"lng":-73.94327,"Type":"SENIOR_CENTER"},{"Address":"320 BEACH 94TH STREET","Borough":"QUEENS","Location 1":"320 BEACH 94TH STREET\nQUEENS, NY 11696\n(40.587511, -73.817332)","Name":"CCNS SEASIDE Neighborhood Senior Center - 43C","State":"NY","Zip Code":11696,"lat":40.5872521,"lng":-73.8171401,"Type":"SENIOR_CENTER"},{"Address":"252 WEST 116 STREET","Borough":"NEW YORK","Location 1":"252 WEST 116 STREET\nNEW YORK, NY 10026\n(40.804218, -73.954879)","Name":"FOOD BANK Neighborhood Senior Center - 33S","State":"NY","Zip Code":10026,"lat":40.80406,"lng":-73.95492,"Type":"SENIOR_CENTER"},{"Address":"1315 FRANKLIN AVENUE","Borough":"BRONX","Location 1":"1315 FRANKLIN AVENUE\nBRONX, NY 10456\n(40.832226, -73.901503)","Name":"IPR\/HE ARTURO SCHOMBERG Neighborhood Senior Center - 13V","State":"NY","Zip Code":10456,"lat":40.83223,"lng":-73.90172,"Type":"SENIOR_CENTER"},{"Address":"3377 WHITE PLAINS ROAD","Borough":"BRONX","Location 1":"3377 WHITE PLAINS ROAD\nBRONX, NY 10467\n(40.874823, -73.867109)","Name":"RAIN GUNHILL Neighborhood Senior Center - 14P","State":"NY","Zip Code":10467,"lat":40.8744716,"lng":-73.8671849,"Type":"SENIOR_CENTER"},{"Address":"141-55 77TH AVENUE","Borough":"QUEENS","Location 1":"141 55 77TH AVENUE\nQUEENS, NY 11367\n(40.711338, -73.840254)","Name":"YOUNG ISRAEL QUEENS VALLEY Neighborhood Senior Center - 43Z","State":"NY","Zip Code":11367,"lat":40.7213416,"lng":-73.81948,"Type":"SENIOR_CENTER"},{"Address":"177 DREISER LOOP","Borough":"BRONX","Location 1":"177 DREISER LOOP\nBRONX, NY 10475\n(40.876364, -73.83004)","Name":"JASA DREISER Neighborhood Senior Center - 14D","State":"NY","Zip Code":10475,"lat":40.87779,"lng":-73.82925,"Type":"SENIOR_CENTER"},{"Address":"202 GRAHAM AVENUE","Borough":"BROOKLYN","Location 1":"202 GRAHAM AVENUE\nBROOKLYN, NY 11206\n(40.709764, -73.943598)","Name":"JASA WILLIAMSBURG Neighborhood Senior Center - 26Q","State":"NY","Zip Code":11206,"lat":40.70899,"lng":-73.94331,"Type":"SENIOR_CENTER"},{"Address":"331 HAWTHORNE STREET","Borough":"BROOKLYN","Location 1":"331 HAWTHORNE STREET\nBROOKLYN, NY 11225\n(40.657904, -73.949334)","Name":"SAINT GABRIELS Neighborhood Senior Center - 27M","State":"NY","Zip Code":11225,"lat":40.6580299,"lng":-73.9492999,"Type":"SENIOR_CENTER"},{"Address":"184 SCHMIDTS LANE","Borough":"STATEN ISLAND","Location 1":"184 SCHMIDTS LANE\nSTATEN ISLAND, NY 10314\n(40.609097, -74.118823)","Name":"TODT HILL Neighborhood Senior Center - 553","State":"NY","Zip Code":10314,"lat":40.6086,"lng":-74.1187999,"Type":"SENIOR_CENTER"},{"Address":"475 53RD STREET","Borough":"BROOKLYN","Location 1":"475 53RD STREET\nBROOKLYN, NY 11220\n(40.643636, -74.012397)","Name":"UNITED Neighborhood Senior Center CITIZENS CENTER - 27N","State":"NY","Zip Code":11220,"lat":40.64367,"lng":-74.01224,"Type":"SENIOR_CENTER"},{"Address":"11 SAMPSON AVENUE","Borough":"STATEN ISLAND","Location 1":"11 SAMPSON AVENUE\nSTATEN ISLAND, NY 10308\n(40.552538, -74.149779)","Name":"GREAT KILLS Neighborhood Senior Center - 551","State":"NY","Zip Code":10308,"lat":40.55251,"lng":-74.14964,"Type":"SENIOR_CENTER"},{"Address":"100 GOLD STREET","Borough":"MANHATTAN","Location 1":"100 GOLD STREET\nMANHATTAN, NY 10038\n(40.710462, -74.003951)","Name":"CITY HALL Neighborhood Senior Center - 347","State":"NY","Zip Code":10038,"lat":40.71015,"lng":-74.00322,"Type":"SENIOR_CENTER"},{"Address":"463 7TH STREET","Borough":"BROOKLYN","Location 1":"463 7TH STREET\nBROOKLYN, NY 11215\n(40.668341, -73.98107)","Name":"PARK SLOPE Neighborhood Senior Center - 26X","State":"NY","Zip Code":11215,"lat":40.6685,"lng":-73.98098,"Type":"SENIOR_CENTER"},{"Address":"5901 13TH AVENUE","Borough":"BROOKLYN","Location 1":"5901 13TH AVENUE\nBROOKLYN, NY 11219\n(40.629426, -73.99794)","Name":"AMICO 59TH STREET Neighborhood Senior Center - 23U","State":"NY","Zip Code":11219,"lat":40.62918,"lng":-73.99799,"Type":"SENIOR_CENTER"},{"Address":"961 OCEAN AVENUE","Borough":"BROOKLYN","Location 1":"961 OCEAN AVENUE\nBROOKLYN, NY 11226\n(40.63893, -73.958886)","Name":"FT GREENE HAZEL BROOKS Neighborhood Senior Center - 25T","State":"NY","Zip Code":11226,"lat":40.6389799,"lng":-73.95871,"Type":"SENIOR_CENTER"},{"Address":"69 MAC DONOUGH STREET","Borough":"BROOKLYN","Location 1":"69 MAC DONOUGH STREET\nBROOKLYN, NY 11216\n(40.681005, -73.943804)","Name":"FT GREENE STUYVESANT HEIGHTS Neighborhood Senior Center - 25Y","State":"NY","Zip Code":11216,"lat":40.6787248,"lng":-73.9442668,"Type":"SENIOR_CENTER"},{"Address":"105 NORTH PORTLAND AVENUE","Borough":"BROOKLYN","Location 1":"105 NORTH PORTLAND AVENUE\nBROOKLYN, NY 11205\n(40.695097, -73.976187)","Name":"FT GREENE WILLOUGHBY Neighborhood Senior Center - 265","State":"NY","Zip Code":11205,"lat":40.69501,"lng":-73.97562,"Type":"SENIOR_CENTER"},{"Address":"305 7TH AVENUE","Borough":"MANHATTAN","Location 1":"305 7TH AVENUE\nMANHATTAN, NY 10001\n(40.746783, -73.993668)","Name":"SAGE ISC - 646","State":"NY","Zip Code":10001,"lat":40.74665,"lng":-73.99338,"Type":"SENIOR_CENTER"},{"Address":"125 HEYWARD STREET","Borough":"BROOKLYN","Location 1":"125 HEYWARD STREET\nBROOKLYN, NY 11206\n(40.701773, -73.955979)","Name":"WILLIAMSBURG-SATMAR Neighborhood Senior Center - 25J","State":"NY","Zip Code":11206,"lat":40.70174,"lng":-73.95626,"Type":"SENIOR_CENTER"},{"Address":"910 EAST 172 STREET","Borough":"BRONX","Location 1":"910 EAST 172 STREET\nBRONX, NY 10460\n(40.834196, -73.890129)","Name":"NEIGHBORHOOD SHOPP CASA BORICUA ISC - 15E","State":"NY","Zip Code":10460,"lat":40.8340699,"lng":-73.89011,"Type":"SENIOR_CENTER"},{"Address":"10 LENOX AVENUE","Borough":"MANHATTAN","Location 1":"10 LENOX AVENUE\nMANHATTAN, NY 10026\n(40.79872, -73.951995)","Name":"CANAAN Neighborhood Senior Center - 30R","State":"NY","Zip Code":10026,"lat":40.79859,"lng":-73.95187,"Type":"SENIOR_CENTER"},{"Address":"411 OVINGTON AVENUE","Borough":"BROOKLYN","Location 1":"411 OVINGTON AVENUE\nBROOKLYN, NY 11209\n(40.633503, -74.02339)","Name":"BAY RIDGE Neighborhood Senior Center - 24T","State":"NY","Zip Code":11209,"lat":40.63366,"lng":-74.0233499,"Type":"SENIOR_CENTER"},{"Address":"630 MOTHER GASTON BLVD","Borough":"BROOKLYN","Location 1":"630 MOTHER GASTON BLVD\nBROOKLYN, NY 11212\n(40.663202, -73.905199)","Name":"TILDEN Neighborhood Senior Center - 27Q","State":"NY","Zip Code":11212,"lat":40.66349,"lng":-73.9056,"Type":"SENIOR_CENTER"},{"Address":"85 JEROME AVENUE","Borough":"STATEN ISLAND","Location 1":"85 JEROME AVENUE\nSTATEN ISLAND, NY 10305\n(40.596114, -74.076036)","Name":"ARROCHAR Neighborhood Senior Center - 552","State":"NY","Zip Code":10305,"lat":40.59639,"lng":-74.07594,"Type":"SENIOR_CENTER"},{"Address":"900 GRAND CONeighborhood Senior CenterOURSE","Borough":"BRONX","Location 1":"900 GRAND\nBRONX, NY 10451\n(40.827373, -73.922243)","Name":"CONeighborhood Senior CenterOURSE PLAZA WELLNESS Neighborhood Senior Center - 14A","State":"NY","Zip Code":10451,"lat":40.82186,"lng":-73.92017,"Type":"SENIOR_CENTER"},{"Address":"1419 DORCHESTER ROAD","Borough":"BROOKLYN","Location 1":"1419 DORCHESTER ROAD\nBROOKLYN, NY 11226\n(40.639191, -73.964218)","Name":"DORCHESTER Neighborhood Senior Center - 25M","State":"NY","Zip Code":11226,"lat":40.63934,"lng":-73.96423,"Type":"SENIOR_CENTER"},{"Address":"135 WEST 23rd STREET","Borough":"MANHATTAN","Location 1":"135 WEST 23rd STREET\nMANHATTAN, NY 10011\n(40.743315, -73.99378)","Name":"VISIONS ISC - 645","State":"NY","Zip Code":10011,"lat":40.74364,"lng":-73.99428,"Type":"SENIOR_CENTER"},{"Address":"54 NAGLE AVENUE","Borough":"MANHATTAN","Location 1":"54 NAGLE AVENUE\nMANHATTAN, NY 10040\n(40.859999, -73.929084)","Name":"YM-YWHA ISC - 33M","State":"NY","Zip Code":10040,"lat":40.86005,"lng":-73.9294199,"Type":"SENIOR_CENTER"},{"Address":"204 EAST 23 STREET","Borough":"MANHATTAN","Location 1":"204 EAST 23 STREET\nMANHATTAN, NY 10010\n(40.738617, -73.982626)","Name":"STEIN Neighborhood Senior Center - 334","State":"NY","Zip Code":10010,"lat":40.73846,"lng":-73.98266,"Type":"SENIOR_CENTER"},{"Address":"3754 10TH AVENUE","Borough":"MANHATTAN","Location 1":"3754 10TH AVENUE\nMANHATTAN, NY 10034\n(40.860758, -73.921646)","Name":"DYCKMAN Neighborhood Senior Center - 34P","State":"NY","Zip Code":10034,"lat":40.86093,"lng":-73.92209,"Type":"SENIOR_CENTER"},{"Address":"2705 SCHLEY AVENUE","Borough":"BRONX","Location 1":"2705 SCHLEY AVENUE\nBRONX, NY 10465\n(40.821381, -73.82759)","Name":"JASA THROGS NECK Neighborhood Senior Center - 14E","State":"NY","Zip Code":10465,"lat":40.8218699,"lng":-73.82755,"Type":"SENIOR_CENTER"},{"Address":"6 WOLCOTT STREET","Borough":"BROOKLYN","Location 1":"6 WOLCOTT STREET\nBROOKLYN, NY 11231\n(40.675388, -74.010036)","Name":"RAICES RED HOOK Neighborhood Senior Center - 27G","State":"NY","Zip Code":11231,"lat":40.67561,"lng":-74.00998,"Type":"SENIOR_CENTER"},{"Address":"201 SOUTH 4TH STREET","Borough":"BROOKLYN","Location 1":"201 SOUTH 4TH STREET\nBROOKLYN, NY 11211\n(40.710852, -73.960115)","Name":"LOS SURES DAVID SANTIAGO Neighborhood Senior Center - 27E","State":"NY","Zip Code":11211,"lat":40.71098,"lng":-73.9601,"Type":"SENIOR_CENTER"},{"Address":"1320 WEBSTER AVENUE","Borough":"BRONX","Location 1":"1320 WEBSTER AVENUE\nBRONX, NY 10456\n(40.835202, -73.90793)","Name":"WILLIAM HODSON Neighborhood Senior Center - 15B","State":"NY","Zip Code":10456,"lat":40.83413,"lng":-73.90837,"Type":"SENIOR_CENTER"},{"Address":"99 FORT WASHINGTON AVENUE","Borough":"MANHATTAN","Location 1":"99 FORT WASHINGTON AVENUE\nMANHATTAN, NY 10032\n(40.838907, -73.943578)","Name":"RIVERSTONE SENIOR LIFE Neighborhood Senior Center - 34V","State":"NY","Zip Code":10032,"lat":40.83911,"lng":-73.94385,"Type":"SENIOR_CENTER"},{"Address":"116 CITY ISLAND AVENUE","Borough":"BRONX","Location 1":"116 CITY ISLAND AVENUE\nBRONX, NY 10464\n(40.840933, -73.784143)","Name":"PSS CITY ISLAND SENIOR CENTER - 15D","State":"NY","Zip Code":10464,"lat":40.8411,"lng":-73.78391,"Type":"SENIOR_CENTER"},{"Address":"2029 SECOND AVENUE","Borough":"MANHATTAN","Location 1":"2029 SECOND AVENUE\nMANHATTAN, NY 10029\n(40.789551, -73.943213)","Name":"GAYLORD WHITE Neighborhood Senior Center - 351","State":"NY","Zip Code":10029,"lat":40.78966,"lng":-73.9435,"Type":"SENIOR_CENTER"},{"Address":"6581 HYLAN BOULEVARD","Borough":"STATEN ISLAND","Location 1":"6581 HYLAN BOULEVARD\nSTATEN ISLAND, NY 10309\n(40.513079, -74.208237)","Name":"MOUNT LORETTO Neighborhood Senior Center - 554","State":"NY","Zip Code":10309,"lat":40.51212,"lng":-74.22236,"Type":"SENIOR_CENTER"},{"Address":"128 CEDAR GROVE AVENUE","Borough":"STATEN ISLAND","Location 1":"128 CEDAR GROVE AVENUE\nSTATEN ISLAND, NY 10306\n(40.560056, -74.101615)","Name":"NEW DORP BEACH Neighborhood Senior Center - 555","State":"NY","Zip Code":10306,"lat":40.56141,"lng":-74.10021,"Type":"SENIOR_CENTER"},{"Address":"9502 SEAVIEW AVENUE","Borough":"BROOKLYN","Location 1":"9502 SEAVIEW AVENUE\nBROOKLYN, NY 11236\n(40.63268, -73.891294)","Name":"JASA HES Neighborhood Senior Center - 26J","State":"NY","Zip Code":11236,"lat":40.63265,"lng":-73.89106,"Type":"SENIOR_CENTER"},{"Address":"5365 BROADWAY","Borough":"BRONX","Location 1":"5365 BROADWAY\nBRONX, NY 10463\n(40.876338, -73.907662)","Name":"MARBLE HILL Neighborhood Senior Center - 13N","State":"NY","Zip Code":10463,"lat":40.8765,"lng":-73.90801,"Type":"SENIOR_CENTER"},{"Address":"119 9TH AVENUE","Borough":"MANHATTAN","Location 1":"119 9TH AVENUE\nMANHATTAN, NY 10011\n(40.743268, -74.00368)","Name":"HUDSON GUILD SENIOR SERVICES - 34A","State":"NY","Zip Code":10011,"lat":40.74324,"lng":-74.00394,"Type":"SENIOR_CENTER"},{"Address":"545 60TH STREET","Borough":"BROOKLYN","Location 1":"545 60TH STREET\nBROOKLYN, NY 11220\n(40.638829, -74.015069)","Name":"BCA Neighborhood Senior Center - 24V","State":"NY","Zip Code":11220,"lat":40.63874,"lng":-74.01466,"Type":"SENIOR_CENTER"},{"Address":"108 WEST 146TH STREET","Borough":"MANHATTAN","Location 1":"108 WEST 146TH STREET\nMANHATTAN, NY 10039\n(40.821233, -73.936037)","Name":"UBA A PHILIP RANDOLPH Neighborhood Senior Center - 354","State":"NY","Zip Code":10039,"lat":40.82129,"lng":-73.93642,"Type":"SENIOR_CENTER"},{"Address":"1540 VAN SICLEN AVENUE","Borough":"BROOKLYN","Location 1":"1540 VAN SICLEN AVENUE\nBROOKLYN, NY 11239\n(40.647779, -73.877282)","Name":"JASA STARRETT CITY Neighborhood Senior Center - 26P","State":"NY","Zip Code":11239,"lat":40.64748,"lng":-73.87754,"Type":"SENIOR_CENTER"}]