[{"Address":"13 East  125 Street","Borough":"Manhattan","Name":"Holy Ghost Pentecostal Church","Zip Code":10035,"borocode":1.0,"city":"New York","council district":9,"datadate":"FBNYC: 2016-08-05","dataname":"FBNYC: FBNYC Food Pantry Soup Kitchen List 8-5-16","datasource":"FBNYC","facdomain":"Health and Human Services","facgroup":"Human Services","facsubgrp":"Soup Kitchens and Food Pantries","factype":"Soup Kitchen","lat":40.806424,"lng":-73.941574,"opabbrev":"Non-public","opname":"Holy Ghost Pentecostal Church","optype":"Non-public","overabbrev":"Non-public","overagency":"Non-public","overlevel":"Non-public Oversight","pgtable":"foodbankny_facilities_foodbanks","street":"East  125 Street","xcoord":1000424.545,"ycoord":233084.4577,"Type":"SOUP_KITCHEN"},{"Address":"302 West  124 Street","Borough":"Manhattan","Name":"Billy Roberts House of Hope","Zip Code":10027,"borocode":1.0,"city":"New York","council district":9,"datadate":"FBNYC: 2016-08-05","dataname":"FBNYC: FBNYC Food Pantry Soup Kitchen List 8-5-16","datasource":"FBNYC","facdomain":"Health and Human Services","facgroup":"Human Services","facsubgrp":"Soup Kitchens and Food Pantries","factype":"Soup Kitchen","lat":40.809524,"lng":-73.952313,"opabbrev":"Non-public","opname":"Billy Roberts House of Hope","optype":"Non-public","overabbrev":"Non-public","overagency":"Non-public","overlevel":"Non-public Oversight","pgtable":"foodbankny_facilities_foodbanks","street":"West  124 Street","xcoord":997450.9807,"ycoord":234212.1387,"Type":"SOUP_KITCHEN"},{"Address":"157-11 111 Avenue","Borough":"Queens","Name":"Bethany Baptist Church of Jamaica","Zip Code":11433,"borocode":4.0,"city":"Jamaica","council district":28,"datadate":"FBNYC: 2016-08-05","dataname":"FBNYC: FBNYC Food Pantry Soup Kitchen List 8-5-16","datasource":"FBNYC","facdomain":"Health and Human Services","facgroup":"Human Services","facsubgrp":"Soup Kitchens and Food Pantries","factype":"Soup Kitchen","lat":40.690357,"lng":-73.7917,"opabbrev":"Non-public","opname":"Bethany Baptist Church of Jamaica","optype":"Non-public","overabbrev":"Non-public","overagency":"Non-public","overlevel":"Non-public Oversight","pgtable":"foodbankny_facilities_foodbanks","street":"111 Avenue","xcoord":1042016.0237,"ycoord":190860.8288,"Type":"SOUP_KITCHEN"},{"Address":"275 Liberty Avenue","Borough":"Brooklyn","Name":"Overcoming Love Ministries","Zip Code":11207,"borocode":3.0,"city":"Brooklyn","council district":37,"datadate":"FBNYC: 2016-08-05","dataname":"FBNYC: FBNYC Food Pantry Soup Kitchen List 8-5-16","datasource":"FBNYC","facdomain":"Health and Human Services","facgroup":"Human Services","facsubgrp":"Soup Kitchens and Food Pantries","factype":"Soup Kitchen","lat":40.673991,"lng":-73.900019,"opabbrev":"Non-public","opname":"Overcoming Love Ministries","optype":"Non-public","overabbrev":"Non-public","overagency":"Non-public","overlevel":"Non-public Oversight","pgtable":"foodbankny_facilities_foodbanks","street":"Liberty Avenue","xcoord":1011983.6405,"ycoord":184845.4864,"Type":"SOUP_KITCHEN"},{"Address":"296 9 Avenue","Borough":"Manhattan","Name":"Holy Apostles Soup Kitchen","Zip Code":10001,"borocode":1.0,"city":"New York","council district":3,"datadate":"FBNYC: 2016-08-05","dataname":"FBNYC: FBNYC Food Pantry Soup Kitchen List 8-5-16","datasource":"FBNYC","facdomain":"Health and Human Services","facgroup":"Human Services","facsubgrp":"Soup Kitchens and Food Pantries","factype":"Soup Kitchen","lat":40.749241,"lng":-73.998793,"opabbrev":"Non-public","opname":"Holy Apostles Soup Kitchen","optype":"Non-public","overabbrev":"Non-public","overagency":"Non-public","overlevel":"Non-public Oversight","pgtable":"foodbankny_facilities_foodbanks","street":"9 Avenue","xcoord":984584.5183,"ycoord":212245.5134,"Type":"SOUP_KITCHEN"},{"Address":"1649 Amsterdam Avenue","Borough":"Manhattan","Name":"Heritage Health and Housing  Inc.","Zip Code":10031,"borocode":1.0,"city":"New York","council district":7,"datadate":"FBNYC: 2016-08-05","dataname":"FBNYC: FBNYC Food Pantry Soup Kitchen List 8-5-16","datasource":"FBNYC","facdomain":"Health and Human Services","facgroup":"Human Services","facsubgrp":"Soup Kitchens and Food Pantries","factype":"Soup Kitchen","lat":40.822908,"lng":-73.949038,"opabbrev":"Non-public","opname":"Heritage Health and Housing  Inc.","optype":"Non-public","overabbrev":"Non-public","overagency":"Non-public","overlevel":"Non-public Oversight","pgtable":"foodbankny_facilities_foodbanks","street":"Amsterdam Avenue","xcoord":998354.6032,"ycoord":239088.8337,"Type":"SOUP_KITCHEN"},{"Address":"179-09 Jamaica Avenue","Borough":"Queens","Name":"Bethesda Missionary Baptist Church","Zip Code":11432,"borocode":4.0,"city":"Jamaica","council district":27,"datadate":"FBNYC: 2016-08-05","dataname":"FBNYC: FBNYC Food Pantry Soup Kitchen List 8-5-16","datasource":"FBNYC","facdomain":"Health and Human Services","facgroup":"Human Services","facsubgrp":"Soup Kitchens and Food Pantries","factype":"Soup Kitchen","lat":40.708515,"lng":-73.781929,"opabbrev":"Non-public","opname":"Bethesda Missionary Baptist Church","optype":"Non-public","overabbrev":"Non-public","overagency":"Non-public","overlevel":"Non-public Oversight","pgtable":"foodbankny_facilities_foodbanks","street":"Jamaica Avenue","xcoord":1044709.0974,"ycoord":197482.6869,"Type":"SOUP_KITCHEN"},{"Address":"520 50 Street","Borough":"Brooklyn","Name":"The Salvation Army Sunset Park Corps","Zip Code":11220,"borocode":3.0,"city":"Brooklyn","council district":38,"datadate":"FBNYC: 2016-08-05","dataname":"FBNYC: FBNYC Food Pantry Soup Kitchen List 8-5-16","datasource":"FBNYC","facdomain":"Health and Human Services","facgroup":"Human Services","facsubgrp":"Soup Kitchens and Food Pantries","factype":"Soup Kitchen","lat":40.64461,"lng":-74.009909,"opabbrev":"Non-public","opname":"The Salvation Army Sunset Park Corps","optype":"Non-public","overabbrev":"Non-public","overagency":"Non-public","overlevel":"Non-public Oversight","pgtable":"foodbankny_facilities_foodbanks","street":"50 Street","xcoord":981500.1857,"ycoord":174125.1746,"Type":"SOUP_KITCHEN"},{"Address":"1208 St Johns Place","Borough":"Brooklyn","Name":"Bethany United Methodist Church","Zip Code":11213,"borocode":3.0,"city":"Brooklyn","council district":35,"datadate":"FBNYC: 2016-08-05","dataname":"FBNYC: FBNYC Food Pantry Soup Kitchen List 8-5-16","datasource":"FBNYC","facdomain":"Health and Human Services","facgroup":"Human Services","facsubgrp":"Soup Kitchens and Food Pantries","factype":"Soup Kitchen","lat":40.670631,"lng":-73.938269,"opabbrev":"Non-public","opname":"Bethany United Methodist Church","optype":"Non-public","overabbrev":"Non-public","overagency":"Non-public","overlevel":"Non-public Oversight","pgtable":"foodbankny_facilities_foodbanks","street":"St Johns Place","xcoord":1001374.3423,"ycoord":183611.2246,"Type":"SOUP_KITCHEN"},{"Address":"830 Mace Avenue","Borough":"Bronx","Name":"St. Lucy's Soup Kitchen","Zip Code":10467,"borocode":2.0,"city":"Bronx","council district":13,"datadate":"FBNYC: 2016-08-05","dataname":"FBNYC: FBNYC Food Pantry Soup Kitchen List 8-5-16","datasource":"FBNYC","facdomain":"Health and Human Services","facgroup":"Human Services","facsubgrp":"Soup Kitchens and Food Pantries","factype":"Soup Kitchen","lat":40.862814,"lng":-73.862108,"opabbrev":"Non-public","opname":"St. Lucy's Soup Kitchen","optype":"Non-public","overabbrev":"Non-public","overagency":"Non-public","overlevel":"Non-public Oversight","pgtable":"foodbankny_facilities_foodbanks","street":"Mace Avenue","xcoord":1022391.5041,"ycoord":253653.9797,"Type":"SOUP_KITCHEN"},{"Address":"1665 Broadway","Borough":"Brooklyn","Name":"Mt. Paran Community Development Corp.","Zip Code":11207,"borocode":3.0,"city":"Brooklyn","council district":37,"datadate":"FBNYC: 2016-08-05","dataname":"FBNYC: FBNYC Food Pantry Soup Kitchen List 8-5-16","datasource":"FBNYC","facdomain":"Health and Human Services","facgroup":"Human Services","facsubgrp":"Soup Kitchens and Food Pantries","factype":"Soup Kitchen","lat":40.684506,"lng":-73.912671,"opabbrev":"Non-public","opname":"Mt. Paran Community Development Corp.","optype":"Non-public","overabbrev":"Non-public","overagency":"Non-public","overlevel":"Non-public Oversight","pgtable":"foodbankny_facilities_foodbanks","street":"Broadway","xcoord":1008470.3533,"ycoord":188672.6503,"Type":"SOUP_KITCHEN"},{"Address":"634 Prospect Place","Borough":"Brooklyn","Name":"New Haven SDA Church","Zip Code":11216,"borocode":3.0,"city":"Brooklyn","council district":35,"datadate":"FBNYC: 2016-08-05","dataname":"FBNYC: FBNYC Food Pantry Soup Kitchen List 8-5-16","datasource":"FBNYC","facdomain":"Health and Human Services","facgroup":"Human Services","facsubgrp":"Soup Kitchens and Food Pantries","factype":"Soup Kitchen","lat":40.674631,"lng":-73.955891,"opabbrev":"Non-public","opname":"New Haven SDA Church","optype":"Non-public","overabbrev":"Non-public","overagency":"Non-public","overlevel":"Non-public Oversight","pgtable":"foodbankny_facilities_foodbanks","street":"Prospect Place","xcoord":996485.2535,"ycoord":185065.7237,"Type":"SOUP_KITCHEN"},{"Address":"43 George Street","Borough":"Brooklyn","Name":"Cathedral of Joy CDC","Zip Code":11206,"borocode":3.0,"city":"Brooklyn","council district":34,"datadate":"FBNYC: 2016-08-05","dataname":"FBNYC: FBNYC Food Pantry Soup Kitchen List 8-5-16","datasource":"FBNYC","facdomain":"Health and Human Services","facgroup":"Human Services","facsubgrp":"Soup Kitchens and Food Pantries","factype":"Soup Kitchen","lat":40.701207,"lng":-73.931918,"opabbrev":"Non-public","opname":"Cathedral of Joy CDC","optype":"Non-public","overabbrev":"Non-public","overagency":"Non-public","overlevel":"Non-public Oversight","pgtable":"foodbankny_facilities_foodbanks","street":"George Street","xcoord":1003127.4908,"ycoord":194752.4433,"Type":"SOUP_KITCHEN"},{"Address":"862 Glenmore Avenue","Borough":"Brooklyn","Name":"Isaiah's Temple of Mt. Hope","Zip Code":11208,"borocode":3.0,"city":"Brooklyn","council district":37,"datadate":"FBNYC: 2016-08-05","dataname":"FBNYC: FBNYC Food Pantry Soup Kitchen List 8-5-16","datasource":"FBNYC","facdomain":"Health and Human Services","facgroup":"Human Services","facsubgrp":"Soup Kitchens and Food Pantries","factype":"Soup Kitchen","lat":40.675607,"lng":-73.878158,"opabbrev":"Non-public","opname":"Isaiah's Temple of Mt. Hope","optype":"Non-public","overabbrev":"Non-public","overagency":"Non-public","overlevel":"Non-public Oversight","pgtable":"foodbankny_facilities_foodbanks","street":"Glenmore Avenue","xcoord":1018046.7757999999,"ycoord":185441.8486,"Type":"SOUP_KITCHEN"},{"Address":"790 Herkimer Street","Borough":"Brooklyn","Name":"Calvary AME Church","Zip Code":11233,"borocode":3.0,"city":"Brooklyn","council district":36,"datadate":"FBNYC: 2016-08-05","dataname":"FBNYC: FBNYC Food Pantry Soup Kitchen List 8-5-16","datasource":"FBNYC","facdomain":"Health and Human Services","facgroup":"Human Services","facsubgrp":"Soup Kitchens and Food Pantries","factype":"Soup Kitchen","lat":40.678106,"lng":-73.92718,"opabbrev":"Non-public","opname":"Calvary AME Church","optype":"Non-public","overabbrev":"Non-public","overagency":"Non-public","overlevel":"Non-public Oversight","pgtable":"foodbankny_facilities_foodbanks","street":"Herkimer Street","xcoord":1004448.2951,"ycoord":186336.9688,"Type":"SOUP_KITCHEN"},{"Address":"439 Ralph Avenue","Borough":"Brooklyn","Name":"St. Mark's Church of Christ","Zip Code":11233,"borocode":3.0,"city":"Brooklyn","council district":41,"datadate":"FBNYC: 2016-08-05","dataname":"FBNYC: FBNYC Food Pantry Soup Kitchen List 8-5-16","datasource":"FBNYC","facdomain":"Health and Human Services","facgroup":"Human Services","facsubgrp":"Soup Kitchens and Food Pantries","factype":"Soup Kitchen","lat":40.674115,"lng":-73.921791,"opabbrev":"Non-public","opname":"St. Mark's Church of Christ","optype":"Non-public","overabbrev":"Non-public","overagency":"Non-public","overlevel":"Non-public Oversight","pgtable":"foodbankny_facilities_foodbanks","street":"Ralph Avenue","xcoord":1005944.1394,"ycoord":184884.4039,"Type":"SOUP_KITCHEN"},{"Address":"227 Bowery","Borough":"Manhattan","Name":"Bowery Mission","Zip Code":10002,"borocode":1.0,"city":"New York","council district":1,"datadate":"FBNYC: 2016-08-05","dataname":"FBNYC: FBNYC Food Pantry Soup Kitchen List 8-5-16","datasource":"FBNYC","facdomain":"Health and Human Services","facgroup":"Human Services","facsubgrp":"Soup Kitchens and Food Pantries","factype":"Soup Kitchen","lat":40.721982,"lng":-73.992852,"opabbrev":"Non-public","opname":"Bowery Mission","optype":"Non-public","overabbrev":"Non-public","overagency":"Non-public","overlevel":"Non-public Oversight","pgtable":"foodbankny_facilities_foodbanks","street":"Bowery","xcoord":986231.2707,"ycoord":202314.0652,"Type":"SOUP_KITCHEN"},{"Address":"1372 Coney Island Avenue","Borough":"Brooklyn","Name":"Masbia of Boro Park","Zip Code":11230,"borocode":3.0,"city":"Brooklyn","council district":44,"datadate":"FBNYC: 2016-08-05","dataname":"FBNYC: FBNYC Food Pantry Soup Kitchen List 8-5-16","datasource":"FBNYC","facdomain":"Health and Human Services","facgroup":"Human Services","facsubgrp":"Soup Kitchens and Food Pantries","factype":"Soup Kitchen","lat":40.624045,"lng":-73.965393,"opabbrev":"Non-public","opname":"Masbia of Boro Park","optype":"Non-public","overabbrev":"Non-public","overagency":"Non-public","overlevel":"Non-public Oversight","pgtable":"foodbankny_facilities_foodbanks","street":"Coney Island Avenue","xcoord":993856.6921,"ycoord":166634.8787,"Type":"SOUP_KITCHEN"},{"Address":"1765 Madison Avenue","Borough":"Manhattan","Name":"Mt. Zion AME Church","Zip Code":10029,"borocode":1.0,"city":"New York","council district":8,"datadate":"FBNYC: 2016-08-05","dataname":"FBNYC: FBNYC Food Pantry Soup Kitchen List 8-5-16","datasource":"FBNYC","facdomain":"Health and Human Services","facgroup":"Human Services","facsubgrp":"Soup Kitchens and Food Pantries","factype":"Soup Kitchen","lat":40.799697,"lng":-73.944726,"opabbrev":"Non-public","opname":"Mt. Zion AME Church","optype":"Non-public","overabbrev":"Non-public","overagency":"Non-public","overlevel":"Non-public Oversight","pgtable":"foodbankny_facilities_foodbanks","street":"Madison Avenue","xcoord":999553.4426,"ycoord":230633.0211,"Type":"SOUP_KITCHEN"},{"Address":"49 Tompkins Avenue","Borough":"Staten Is","Name":"Stapleton UAME Church","Zip Code":10304,"borocode":null,"city":"Staten Is","council district":49,"datadate":"FBNYC: 2016-08-05","dataname":"FBNYC: FBNYC Food Pantry Soup Kitchen List 8-5-16","datasource":"FBNYC","facdomain":"Health and Human Services","facgroup":"Human Services","facsubgrp":"Soup Kitchens and Food Pantries","factype":"Soup Kitchen","lat":40.623378,"lng":-74.078684,"opabbrev":"Non-public","opname":"Stapleton UAME Church","optype":"Non-public","overabbrev":"Non-public","overagency":"Non-public","overlevel":"Non-public Oversight","pgtable":"foodbankny_facilities_foodbanks","street":"Tompkins Avenue","xcoord":962407.4635,"ycoord":166399.7044,"Type":"SOUP_KITCHEN"},{"Address":"411 Ovington Avenue","Borough":"Brooklyn","Name":"Bay Ridge Community Service Center","Zip Code":11209,"borocode":3.0,"city":"Brooklyn","council district":43,"datadate":"FBNYC: 2016-08-05","dataname":"FBNYC: FBNYC Food Pantry Soup Kitchen List 8-5-16","datasource":"FBNYC","facdomain":"Health and Human Services","facgroup":"Human Services","facsubgrp":"Soup Kitchens and Food Pantries","factype":"Soup Kitchen","lat":40.633699,"lng":-74.023314,"opabbrev":"Non-public","opname":"Bay Ridge Community Service Center","optype":"Non-public","overabbrev":"Non-public","overagency":"Non-public","overlevel":"Non-public Oversight","pgtable":"foodbankny_facilities_foodbanks","street":"Ovington Avenue","xcoord":977779.0412,"ycoord":170151.0277,"Type":"SOUP_KITCHEN"},{"Address":"1393 York Avenue","Borough":"Manhattan","Name":"Church of the Epiphany","Zip Code":10021,"borocode":1.0,"city":"New York","council district":5,"datadate":"FBNYC: 2016-08-05","dataname":"FBNYC: FBNYC Food Pantry Soup Kitchen List 8-5-16","datasource":"FBNYC","facdomain":"Health and Human Services","facgroup":"Human Services","facsubgrp":"Soup Kitchens and Food Pantries","factype":"Soup Kitchen","lat":40.768488,"lng":-73.952992,"opabbrev":"Non-public","opname":"Church of the Epiphany","optype":"Non-public","overabbrev":"Non-public","overagency":"Non-public","overlevel":"Non-public Oversight","pgtable":"foodbankny_facilities_foodbanks","street":"York Avenue","xcoord":997271.0082,"ycoord":219261.1164,"Type":"SOUP_KITCHEN"},{"Address":"159-29 90 Avenue","Borough":"Queens","Name":"First Reformed Church of Jamaica","Zip Code":11432,"borocode":4.0,"city":"Jamaica","council district":24,"datadate":"FBNYC: 2016-08-05","dataname":"FBNYC: FBNYC Food Pantry Soup Kitchen List 8-5-16","datasource":"FBNYC","facdomain":"Health and Human Services","facgroup":"Human Services","facsubgrp":"Soup Kitchens and Food Pantries","factype":"Soup Kitchen","lat":40.705385,"lng":-73.800258,"opabbrev":"Non-public","opname":"First Reformed Church of Jamaica","optype":"Non-public","overabbrev":"Non-public","overagency":"Non-public","overlevel":"Non-public Oversight","pgtable":"foodbankny_facilities_foodbanks","street":"90 Avenue","xcoord":1039630.1390000001,"ycoord":196330.4424,"Type":"SOUP_KITCHEN"},{"Address":"1295 Forest Avenue","Borough":"Staten Is","Name":"Salvation Army\/Port Richmond Corps Communuty Ctr","Zip Code":10302,"borocode":null,"city":"Staten Is","council district":49,"datadate":"FBNYC: 2016-08-05","dataname":"FBNYC: FBNYC Food Pantry Soup Kitchen List 8-5-16","datasource":"FBNYC","facdomain":"Health and Human Services","facgroup":"Human Services","facsubgrp":"Soup Kitchens and Food Pantries","factype":"Soup Kitchen","lat":40.626587,"lng":-74.133066,"opabbrev":"Non-public","opname":"Salvation Army\/Port Richmond Corps Communuty Ctr","optype":"Non-public","overabbrev":"Non-public","overagency":"Non-public","overlevel":"Non-public Oversight","pgtable":"foodbankny_facilities_foodbanks","street":"Forest Avenue","xcoord":947312.7724,"ycoord":167587.0498,"Type":"SOUP_KITCHEN"},{"Address":"425 Utica Avenue","Borough":"Brooklyn","Name":"St. Anthony Baptist Church","Zip Code":11213,"borocode":3.0,"city":"Brooklyn","council district":41,"datadate":"FBNYC: 2016-08-05","dataname":"FBNYC: FBNYC Food Pantry Soup Kitchen List 8-5-16","datasource":"FBNYC","facdomain":"Health and Human Services","facgroup":"Human Services","facsubgrp":"Soup Kitchens and Food Pantries","factype":"Soup Kitchen","lat":40.663824,"lng":-73.931154,"opabbrev":"Non-public","opname":"St. Anthony Baptist Church","optype":"Non-public","overabbrev":"Non-public","overagency":"Non-public","overlevel":"Non-public Oversight","pgtable":"foodbankny_facilities_foodbanks","street":"Utica Avenue","xcoord":1003350.0739,"ycoord":181133.0051,"Type":"SOUP_KITCHEN"},{"Address":"2348 7 Avenue","Borough":"Manhattan","Name":"Iris House Westside Soup Kitchen","Zip Code":10030,"borocode":1.0,"city":"New York","council district":9,"datadate":"FBNYC: 2016-08-05","dataname":"FBNYC: FBNYC Food Pantry Soup Kitchen List 8-5-16","datasource":"FBNYC","facdomain":"Health and Human Services","facgroup":"Human Services","facsubgrp":"Soup Kitchens and Food Pantries","factype":"Soup Kitchen","lat":40.81712,"lng":-73.942839,"opabbrev":"Non-public","opname":"Iris House Westside Soup Kitchen","optype":"Non-public","overabbrev":"Non-public","overagency":"Non-public","overlevel":"Non-public Oversight","pgtable":"foodbankny_facilities_foodbanks","street":"7 Avenue","xcoord":1000071.806,"ycoord":236981.0506,"Type":"SOUP_KITCHEN"},{"Address":"252 West  116 Street","Borough":"Manhattan","Name":"Community Kitchen and Food Pantry of West Harlem","Zip Code":10026,"borocode":1.0,"city":"New York","council district":9,"datadate":"FBNYC: 2016-08-05","dataname":"FBNYC: FBNYC Food Pantry Soup Kitchen List 8-5-16","datasource":"FBNYC","facdomain":"Health and Human Services","facgroup":"Human Services","facsubgrp":"Soup Kitchens and Food Pantries","factype":"Soup Kitchen","lat":40.803958,"lng":-73.95498,"opabbrev":"Non-public","opname":"Community Kitchen and Food Pantry of West Harlem","optype":"Non-public","overabbrev":"Non-public","overagency":"Non-public","overlevel":"Non-public Oversight","pgtable":"foodbankny_facilities_foodbanks","street":"West  116 Street","xcoord":996713.7291,"ycoord":232183.8808,"Type":"SOUP_KITCHEN"},{"Address":"940 East  156 Street","Borough":"Bronx","Name":"St. Margaret's Episcopal Church","Zip Code":10455,"borocode":2.0,"city":"Bronx","council district":17,"datadate":"FBNYC: 2016-08-05","dataname":"FBNYC: FBNYC Food Pantry Soup Kitchen List 8-5-16","datasource":"FBNYC","facdomain":"Health and Human Services","facgroup":"Human Services","facsubgrp":"Soup Kitchens and Food Pantries","factype":"Soup Kitchen","lat":40.816298,"lng":-73.900439,"opabbrev":"Non-public","opname":"St. Margaret's Episcopal Church","optype":"Non-public","overabbrev":"Non-public","overagency":"Non-public","overlevel":"Non-public Oversight","pgtable":"foodbankny_facilities_foodbanks","street":"East  156 Street","xcoord":1011808.2288,"ycoord":236692.1097,"Type":"SOUP_KITCHEN"},{"Address":"1372 Stratford Avenue","Borough":"Bronx","Name":"St. Joan of Arc Church","Zip Code":10472,"borocode":2.0,"city":"Bronx","council district":18,"datadate":"FBNYC: 2016-08-05","dataname":"FBNYC: FBNYC Food Pantry Soup Kitchen List 8-5-16","datasource":"FBNYC","facdomain":"Health and Human Services","facgroup":"Human Services","facsubgrp":"Soup Kitchens and Food Pantries","factype":"Soup Kitchen","lat":40.833289,"lng":-73.876188,"opabbrev":"Non-public","opname":"St. Joan of Arc Church","optype":"Non-public","overabbrev":"Non-public","overagency":"Non-public","overlevel":"Non-public Oversight","pgtable":"foodbankny_facilities_foodbanks","street":"Stratford Avenue","xcoord":1018511.9556,"ycoord":242891.1335,"Type":"SOUP_KITCHEN"},{"Address":"874 Myrtle Avenue","Borough":"Brooklyn","Name":"St. Stephen Outreach Inc.","Zip Code":11206,"borocode":3.0,"city":"Brooklyn","council district":36,"datadate":"FBNYC: 2016-08-05","dataname":"FBNYC: FBNYC Food Pantry Soup Kitchen List 8-5-16","datasource":"FBNYC","facdomain":"Health and Human Services","facgroup":"Human Services","facsubgrp":"Soup Kitchens and Food Pantries","factype":"Soup Kitchen","lat":40.695366,"lng":-73.947115,"opabbrev":"Non-public","opname":"St. Stephen Outreach Inc.","optype":"Non-public","overabbrev":"Non-public","overagency":"Non-public","overlevel":"Non-public Oversight","pgtable":"foodbankny_facilities_foodbanks","street":"Myrtle Avenue","xcoord":998915.1112,"ycoord":192621.4624,"Type":"SOUP_KITCHEN"},{"Address":"795 Lexington Avenue","Borough":"Brooklyn","Name":"St. John's Bread and Life","Zip Code":11221,"borocode":3.0,"city":"Brooklyn","council district":36,"datadate":"FBNYC: 2016-08-05","dataname":"FBNYC: FBNYC Food Pantry Soup Kitchen List 8-5-16","datasource":"FBNYC","facdomain":"Health and Human Services","facgroup":"Human Services","facsubgrp":"Soup Kitchens and Food Pantries","factype":"Soup Kitchen","lat":40.690433,"lng":-73.928904,"opabbrev":"Non-public","opname":"St. John's Bread and Life","optype":"Non-public","overabbrev":"Non-public","overagency":"Non-public","overlevel":"Non-public Oversight","pgtable":"foodbankny_facilities_foodbanks","street":"Lexington Avenue","xcoord":1003966.5024,"ycoord":190827.9762,"Type":"SOUP_KITCHEN"},{"Address":"98-08 Queens Boulevard","Borough":"Queens","Name":"Masbia of Queens","Zip Code":11374,"borocode":4.0,"city":"Rego Park","council district":29,"datadate":"FBNYC: 2016-08-05","dataname":"FBNYC: FBNYC Food Pantry Soup Kitchen List 8-5-16","datasource":"FBNYC","facdomain":"Health and Human Services","facgroup":"Human Services","facsubgrp":"Soup Kitchens and Food Pantries","factype":"Soup Kitchen","lat":40.732546,"lng":-73.868047,"opabbrev":"Non-public","opname":"Masbia of Queens","optype":"Non-public","overabbrev":"Non-public","overagency":"Non-public","overlevel":"Non-public Oversight","pgtable":"foodbankny_facilities_foodbanks","street":"Queens Boulevard","xcoord":1020820.1616,"ycoord":206190.3475,"Type":"SOUP_KITCHEN"},{"Address":"3154 Fish Avenue","Borough":"Bronx","Name":"Eastchester Presbyterian Church","Zip Code":10469,"borocode":2.0,"city":"Bronx","council district":12,"datadate":"FBNYC: 2016-08-05","dataname":"FBNYC: FBNYC Food Pantry Soup Kitchen List 8-5-16","datasource":"FBNYC","facdomain":"Health and Human Services","facgroup":"Human Services","facsubgrp":"Soup Kitchens and Food Pantries","factype":"Soup Kitchen","lat":40.871266,"lng":-73.847033,"opabbrev":"Non-public","opname":"Eastchester Presbyterian Church","optype":"Non-public","overabbrev":"Non-public","overagency":"Non-public","overlevel":"Non-public Oversight","pgtable":"foodbankny_facilities_foodbanks","street":"Fish Avenue","xcoord":1026555.8894,"ycoord":256740.4679,"Type":"SOUP_KITCHEN"},{"Address":"200-25 Linden Boulevard","Borough":"Queens","Name":"St. Alban's Gospel Assembly","Zip Code":11412,"borocode":4.0,"city":"Saint Albans","council district":27,"datadate":"FBNYC: 2016-08-05","dataname":"FBNYC: FBNYC Food Pantry Soup Kitchen List 8-5-16","datasource":"FBNYC","facdomain":"Health and Human Services","facgroup":"Human Services","facsubgrp":"Soup Kitchens and Food Pantries","factype":"Soup Kitchen","lat":40.694773,"lng":-73.751781,"opabbrev":"Non-public","opname":"St. Alban's Gospel Assembly","optype":"Non-public","overabbrev":"Non-public","overagency":"Non-public","overlevel":"Non-public Oversight","pgtable":"foodbankny_facilities_foodbanks","street":"Linden Boulevard","xcoord":1053081.6492000001,"ycoord":192498.6612,"Type":"SOUP_KITCHEN"},{"Address":"1256 Dean Street","Borough":"Brooklyn","Name":"Hebron SDA Church","Zip Code":11216,"borocode":3.0,"city":"Brooklyn","council district":36,"datadate":"FBNYC: 2016-08-05","dataname":"FBNYC: FBNYC Food Pantry Soup Kitchen List 8-5-16","datasource":"FBNYC","facdomain":"Health and Human Services","facgroup":"Human Services","facsubgrp":"Soup Kitchens and Food Pantries","factype":"Soup Kitchen","lat":40.676516,"lng":-73.947484,"opabbrev":"Non-public","opname":"Hebron SDA Church","optype":"Non-public","overabbrev":"Non-public","overagency":"Non-public","overlevel":"Non-public Oversight","pgtable":"foodbankny_facilities_foodbanks","street":"Dean Street","xcoord":998816.8852,"ycoord":185753.8853,"Type":"SOUP_KITCHEN"},{"Address":"46 West   16 Street","Borough":"Manhattan","Name":"Xavier Mission, Inc.","Zip Code":10011,"borocode":1.0,"city":"New York","council district":3,"datadate":"FBNYC: 2016-08-05","dataname":"FBNYC: FBNYC Food Pantry Soup Kitchen List 8-5-16","datasource":"FBNYC","facdomain":"Health and Human Services","facgroup":"Human Services","facsubgrp":"Soup Kitchens and Food Pantries","factype":"Soup Kitchen","lat":40.73805,"lng":-73.995278,"opabbrev":"Non-public","opname":"Xavier Mission, Inc.","optype":"Non-public","overabbrev":"Non-public","overagency":"Non-public","overlevel":"Non-public Oversight","pgtable":"foodbankny_facilities_foodbanks","street":"West   16 Street","xcoord":985558.693,"ycoord":208168.0909,"Type":"SOUP_KITCHEN"},{"Address":"1909 Vyse Avenue","Borough":"Bronx","Name":"Grace Episcopal Church","Zip Code":10460,"borocode":2.0,"city":"Bronx","council district":17,"datadate":"FBNYC: 2016-08-05","dataname":"FBNYC: FBNYC Food Pantry Soup Kitchen List 8-5-16","datasource":"FBNYC","facdomain":"Health and Human Services","facgroup":"Human Services","facsubgrp":"Soup Kitchens and Food Pantries","factype":"Soup Kitchen","lat":40.840594,"lng":-73.883648,"opabbrev":"Non-public","opname":"Grace Episcopal Church","optype":"Non-public","overabbrev":"Non-public","overagency":"Non-public","overlevel":"Non-public Oversight","pgtable":"foodbankny_facilities_foodbanks","street":"Vyse Avenue","xcoord":1016444.1599,"ycoord":245549.8679,"Type":"SOUP_KITCHEN"},{"Address":"1234 East New York Avenue","Borough":"Brooklyn","Name":"Ebenezer SDA Church","Zip Code":11212,"borocode":3.0,"city":"Brooklyn","council district":41,"datadate":"FBNYC: 2016-08-05","dataname":"FBNYC: FBNYC Food Pantry Soup Kitchen List 8-5-16","datasource":"FBNYC","facdomain":"Health and Human Services","facgroup":"Human Services","facsubgrp":"Soup Kitchens and Food Pantries","factype":"Soup Kitchen","lat":40.667475,"lng":-73.921339,"opabbrev":"Non-public","opname":"Ebenezer SDA Church","optype":"Non-public","overabbrev":"Non-public","overagency":"Non-public","overlevel":"Non-public Oversight","pgtable":"foodbankny_facilities_foodbanks","street":"East New York Avenue","xcoord":1006071.9454,"ycoord":182465.2006,"Type":"SOUP_KITCHEN"},{"Address":"264 West   87 Street","Borough":"Manhattan","Name":"The Other Place\/Goddard Riverside","Zip Code":10024,"borocode":1.0,"city":"New York","council district":6,"datadate":"FBNYC: 2016-08-05","dataname":"FBNYC: FBNYC Food Pantry Soup Kitchen List 8-5-16","datasource":"FBNYC","facdomain":"Health and Human Services","facgroup":"Human Services","facsubgrp":"Soup Kitchens and Food Pantries","factype":"Soup Kitchen","lat":40.789268,"lng":-73.977168,"opabbrev":"Non-public","opname":"The Other Place\/Goddard Riverside","optype":"Non-public","overabbrev":"Non-public","overagency":"Non-public","overlevel":"Non-public Oversight","pgtable":"foodbankny_facilities_foodbanks","street":"West   87 Street","xcoord":990572.3135,"ycoord":226829.3745,"Type":"SOUP_KITCHEN"},{"Address":"1288 Rev James Polite Avenue","Borough":"Bronx","Name":"Caldwell Temple AME ZION Church","Zip Code":10459,"borocode":2.0,"city":"Bronx","council district":17,"datadate":"FBNYC: 2016-08-05","dataname":"FBNYC: FBNYC Food Pantry Soup Kitchen List 8-5-16","datasource":"FBNYC","facdomain":"Health and Human Services","facgroup":"Human Services","facsubgrp":"Soup Kitchens and Food Pantries","factype":"Soup Kitchen","lat":40.829609,"lng":-73.895318,"opabbrev":"Non-public","opname":"Caldwell Temple AME ZION Church","optype":"Non-public","overabbrev":"Non-public","overagency":"Non-public","overlevel":"Non-public Oversight","pgtable":"foodbankny_facilities_foodbanks","street":"Rev James Polite Avenue","xcoord":1013219.7828,"ycoord":241543.3823,"Type":"SOUP_KITCHEN"},{"Address":"119-48 Sutphin Boulevard","Borough":"Queens","Name":"Rush Temple AME Zion Church Soup Kitchen","Zip Code":11436,"borocode":4.0,"city":"Jamaica","council district":28,"datadate":"FBNYC: 2016-08-05","dataname":"FBNYC: FBNYC Food Pantry Soup Kitchen List 8-5-16","datasource":"FBNYC","facdomain":"Health and Human Services","facgroup":"Human Services","facsubgrp":"Soup Kitchens and Food Pantries","factype":"Soup Kitchen","lat":40.677909,"lng":-73.791658,"opabbrev":"Non-public","opname":"Rush Temple AME Zion Church Soup Kitchen","optype":"Non-public","overabbrev":"Non-public","overagency":"Non-public","overlevel":"Non-public Oversight","pgtable":"foodbankny_facilities_foodbanks","street":"Sutphin Boulevard","xcoord":1042038.2358,"ycoord":186325.5166,"Type":"SOUP_KITCHEN"},{"Address":"240 East Tremont Avenue","Borough":"Bronx","Name":"Manna of Life Ministries, Inc.","Zip Code":10457,"borocode":2.0,"city":"Bronx","council district":15,"datadate":"FBNYC: 2016-08-05","dataname":"FBNYC: FBNYC Food Pantry Soup Kitchen List 8-5-16","datasource":"FBNYC","facdomain":"Health and Human Services","facgroup":"Human Services","facsubgrp":"Soup Kitchens and Food Pantries","factype":"Soup Kitchen","lat":40.848639,"lng":-73.904437,"opabbrev":"Non-public","opname":"Manna of Life Ministries, Inc.","optype":"Non-public","overabbrev":"Non-public","overagency":"Non-public","overlevel":"Non-public Oversight","pgtable":"foodbankny_facilities_foodbanks","street":"East Tremont Avenue","xcoord":1010688.6157,"ycoord":248474.0435,"Type":"SOUP_KITCHEN"},{"Address":"2500 Westchester Avenue","Borough":"Bronx","Name":"St. Peter's Episcopal Love Kitchen","Zip Code":10461,"borocode":2.0,"city":"Bronx","council district":13,"datadate":"FBNYC: 2016-08-05","dataname":"FBNYC: FBNYC Food Pantry Soup Kitchen List 8-5-16","datasource":"FBNYC","facdomain":"Health and Human Services","facgroup":"Human Services","facsubgrp":"Soup Kitchens and Food Pantries","factype":"Soup Kitchen","lat":40.838527,"lng":-73.843826,"opabbrev":"Non-public","opname":"St. Peter's Episcopal Love Kitchen","optype":"Non-public","overabbrev":"Non-public","overagency":"Non-public","overlevel":"Non-public Oversight","pgtable":"foodbankny_facilities_foodbanks","street":"Westchester Avenue","xcoord":1027463.9734,"ycoord":244813.9947,"Type":"SOUP_KITCHEN"},{"Address":"308 West   46 Street","Borough":"Manhattan","Name":"St. Luke's Lutheran Church","Zip Code":10036,"borocode":1.0,"city":"New York","council district":3,"datadate":"FBNYC: 2016-08-05","dataname":"FBNYC: FBNYC Food Pantry Soup Kitchen List 8-5-16","datasource":"FBNYC","facdomain":"Health and Human Services","facgroup":"Human Services","facsubgrp":"Soup Kitchens and Food Pantries","factype":"Soup Kitchen","lat":40.759871,"lng":-73.988705,"opabbrev":"Non-public","opname":"St. Luke's Lutheran Church","optype":"Non-public","overabbrev":"Non-public","overagency":"Non-public","overlevel":"Non-public Oversight","pgtable":"foodbankny_facilities_foodbanks","street":"West   46 Street","xcoord":987379.0021,"ycoord":216118.4053,"Type":"SOUP_KITCHEN"},{"Address":"15-10 Redfern Avenue","Borough":"Queens","Name":"H.O. Scott Education and Comm. Ctr. Peach Cobbler","Zip Code":11691,"borocode":4.0,"city":"Far Rockaway","council district":31,"datadate":"FBNYC: 2016-08-05","dataname":"FBNYC: FBNYC Food Pantry Soup Kitchen List 8-5-16","datasource":"FBNYC","facdomain":"Health and Human Services","facgroup":"Human Services","facsubgrp":"Soup Kitchens and Food Pantries","factype":"Soup Kitchen","lat":40.608491,"lng":-73.752266,"opabbrev":"Non-public","opname":"H.O. Scott Education and Comm. Ctr. Peach Cobbler","optype":"Non-public","overabbrev":"Non-public","overagency":"Non-public","overlevel":"Non-public Oversight","pgtable":"foodbankny_facilities_foodbanks","street":"Redfern Avenue","xcoord":1053036.0585,"ycoord":161063.1644,"Type":"SOUP_KITCHEN"},{"Address":"2094 Fulton Street","Borough":"Brooklyn","Name":"Neighbors Together","Zip Code":11233,"borocode":3.0,"city":"Brooklyn","council district":41,"datadate":"FBNYC: 2016-08-05","dataname":"FBNYC: FBNYC Food Pantry Soup Kitchen List 8-5-16","datasource":"FBNYC","facdomain":"Health and Human Services","facgroup":"Human Services","facsubgrp":"Soup Kitchens and Food Pantries","factype":"Soup Kitchen","lat":40.678204,"lng":-73.913832,"opabbrev":"Non-public","opname":"Neighbors Together","optype":"Non-public","overabbrev":"Non-public","overagency":"Non-public","overlevel":"Non-public Oversight","pgtable":"foodbankny_facilities_foodbanks","street":"Fulton Street","xcoord":1008150.4773,"ycoord":186376.117,"Type":"SOUP_KITCHEN"},{"Address":"1800 Bedford Avenue","Borough":"Brooklyn","Name":"Grace Reformed Church of Flatbush","Zip Code":11225,"borocode":3.0,"city":"Brooklyn","council district":40,"datadate":"FBNYC: 2016-08-05","dataname":"FBNYC: FBNYC Food Pantry Soup Kitchen List 8-5-16","datasource":"FBNYC","facdomain":"Health and Human Services","facgroup":"Human Services","facsubgrp":"Soup Kitchens and Food Pantries","factype":"Soup Kitchen","lat":40.661706,"lng":-73.957269,"opabbrev":"Non-public","opname":"Grace Reformed Church of Flatbush","optype":"Non-public","overabbrev":"Non-public","overagency":"Non-public","overlevel":"Non-public Oversight","pgtable":"foodbankny_facilities_foodbanks","street":"Bedford Avenue","xcoord":996105.3161000001,"ycoord":180356.5271,"Type":"SOUP_KITCHEN"},{"Address":"569 Hart Street","Borough":"Brooklyn","Name":"Friendly Christian Church","Zip Code":11221,"borocode":3.0,"city":"Brooklyn","council district":34,"datadate":"FBNYC: 2016-08-05","dataname":"FBNYC: FBNYC Food Pantry Soup Kitchen List 8-5-16","datasource":"FBNYC","facdomain":"Health and Human Services","facgroup":"Human Services","facsubgrp":"Soup Kitchens and Food Pantries","factype":"Soup Kitchen","lat":40.697183,"lng":-73.92927,"opabbrev":"Non-public","opname":"Friendly Christian Church","optype":"Non-public","overabbrev":"Non-public","overagency":"Non-public","overlevel":"Non-public Oversight","pgtable":"foodbankny_facilities_foodbanks","street":"Hart Street","xcoord":1003862.8931,"ycoord":193287.0142,"Type":"SOUP_KITCHEN"},{"Address":"127 West   25 Street","Borough":"Manhattan","Name":"BRC Project Rescue","Zip Code":10001,"borocode":1.0,"city":"New York","council district":3,"datadate":"FBNYC: 2016-08-05","dataname":"FBNYC: FBNYC Food Pantry Soup Kitchen List 8-5-16","datasource":"FBNYC","facdomain":"Health and Human Services","facgroup":"Human Services","facsubgrp":"Soup Kitchens and Food Pantries","factype":"Soup Kitchen","lat":40.744921,"lng":-73.993034,"opabbrev":"Non-public","opname":"BRC Project Rescue","optype":"Non-public","overabbrev":"Non-public","overagency":"Non-public","overlevel":"Non-public Oversight","pgtable":"foodbankny_facilities_foodbanks","street":"West   25 Street","xcoord":986180.2949,"ycoord":210671.6698,"Type":"SOUP_KITCHEN"},{"Address":"138 Pennsylvania Avenue","Borough":"Brooklyn","Name":"Cornerstone SDA Church","Zip Code":11207,"borocode":3.0,"city":"Brooklyn","council district":37,"datadate":"FBNYC: 2016-08-05","dataname":"FBNYC: FBNYC Food Pantry Soup Kitchen List 8-5-16","datasource":"FBNYC","facdomain":"Health and Human Services","facgroup":"Human Services","facsubgrp":"Soup Kitchens and Food Pantries","factype":"Soup Kitchen","lat":40.67449,"lng":-73.896943,"opabbrev":"Non-public","opname":"Cornerstone SDA Church","optype":"Non-public","overabbrev":"Non-public","overagency":"Non-public","overlevel":"Non-public Oversight","pgtable":"foodbankny_facilities_foodbanks","street":"Pennsylvania Avenue","xcoord":1012836.7258,"ycoord":185027.9958,"Type":"SOUP_KITCHEN"},{"Address":"2176 Grand Concourse","Borough":"Bronx","Name":"Bread of Life Mission","Zip Code":10457,"borocode":2.0,"city":"Bronx","council district":15,"datadate":"FBNYC: 2016-08-05","dataname":"FBNYC: FBNYC Food Pantry Soup Kitchen List 8-5-16","datasource":"FBNYC","facdomain":"Health and Human Services","facgroup":"Human Services","facsubgrp":"Soup Kitchens and Food Pantries","factype":"Soup Kitchen","lat":40.855019,"lng":-73.900827,"opabbrev":"Non-public","opname":"Bread of Life Mission","optype":"Non-public","overabbrev":"Non-public","overagency":"Non-public","overlevel":"Non-public Oversight","pgtable":"foodbankny_facilities_foodbanks","street":"Grand Concourse","xcoord":1011684.6942,"ycoord":250799.6376,"Type":"SOUP_KITCHEN"},{"Address":"8 East  109 Street","Borough":"Manhattan","Name":"New York Common Pantry","Zip Code":10029,"borocode":1.0,"city":"New York","council district":9,"datadate":"FBNYC: 2016-08-05","dataname":"FBNYC: FBNYC Food Pantry Soup Kitchen List 8-5-16","datasource":"FBNYC","facdomain":"Health and Human Services","facgroup":"Human Services","facsubgrp":"Soup Kitchens and Food Pantries","factype":"Soup Kitchen","lat":40.795786,"lng":-73.949228,"opabbrev":"Non-public","opname":"New York Common Pantry","optype":"Non-public","overabbrev":"Non-public","overagency":"Non-public","overlevel":"Non-public Oversight","pgtable":"foodbankny_facilities_foodbanks","street":"East  109 Street","xcoord":998307.9893,"ycoord":229207.1723,"Type":"SOUP_KITCHEN"},{"Address":"708 East  216 Street","Borough":"Bronx","Name":"Ebenezer Pilgrim Holiness Church","Zip Code":10467,"borocode":2.0,"city":"Bronx","council district":12,"datadate":"FBNYC: 2016-08-05","dataname":"FBNYC: FBNYC Food Pantry Soup Kitchen List 8-5-16","datasource":"FBNYC","facdomain":"Health and Human Services","facgroup":"Human Services","facsubgrp":"Soup Kitchens and Food Pantries","factype":"Soup Kitchen","lat":40.881106,"lng":-73.863594,"opabbrev":"Non-public","opname":"Ebenezer Pilgrim Holiness Church","optype":"Non-public","overabbrev":"Non-public","overagency":"Non-public","overlevel":"Non-public Oversight","pgtable":"foodbankny_facilities_foodbanks","street":"East  216 Street","xcoord":1021969.9909,"ycoord":260317.8789,"Type":"SOUP_KITCHEN"},{"Address":"145-03 Rockaway Boulevard","Borough":"Queens","Name":"Morris Brown AME Church","Zip Code":11436,"borocode":4.0,"city":"Jamaica","council district":28,"datadate":"FBNYC: 2016-08-05","dataname":"FBNYC: FBNYC Food Pantry Soup Kitchen List 8-5-16","datasource":"FBNYC","facdomain":"Health and Human Services","facgroup":"Human Services","facsubgrp":"Soup Kitchens and Food Pantries","factype":"Soup Kitchen","lat":40.673854,"lng":-73.793448,"opabbrev":"Non-public","opname":"Morris Brown AME Church","optype":"Non-public","overabbrev":"Non-public","overagency":"Non-public","overlevel":"Non-public Oversight","pgtable":"foodbankny_facilities_foodbanks","street":"Rockaway Boulevard","xcoord":1041545.2926,"ycoord":184847.1851,"Type":"SOUP_KITCHEN"},{"Address":"446 West   33 Street","Borough":"Manhattan","Name":"GMHC Meals Program","Zip Code":10001,"borocode":1.0,"city":"New York","council district":3,"datadate":"FBNYC: 2016-08-05","dataname":"FBNYC: FBNYC Food Pantry Soup Kitchen List 8-5-16","datasource":"FBNYC","facdomain":"Health and Human Services","facgroup":"Human Services","facsubgrp":"Soup Kitchens and Food Pantries","factype":"Soup Kitchen","lat":40.753385,"lng":-73.99842,"opabbrev":"Non-public","opname":"GMHC Meals Program","optype":"Non-public","overabbrev":"Non-public","overagency":"Non-public","overlevel":"Non-public Oversight","pgtable":"foodbankny_facilities_foodbanks","street":"West   33 Street","xcoord":984687.7529,"ycoord":213755.1554,"Type":"SOUP_KITCHEN"},{"Address":"1624 East  172 Street","Borough":"Bronx","Name":"We Care Community Outreach","Zip Code":10472,"borocode":2.0,"city":"Bronx","council district":18,"datadate":"FBNYC: 2016-08-05","dataname":"FBNYC: FBNYC Food Pantry Soup Kitchen List 8-5-16","datasource":"FBNYC","facdomain":"Health and Human Services","facgroup":"Human Services","facsubgrp":"Soup Kitchens and Food Pantries","factype":"Soup Kitchen","lat":40.831623,"lng":-73.874818,"opabbrev":"Non-public","opname":"We Care Community Outreach","optype":"Non-public","overabbrev":"Non-public","overagency":"Non-public","overlevel":"Non-public Oversight","pgtable":"foodbankny_facilities_foodbanks","street":"East  172 Street","xcoord":1018891.8937,"ycoord":242284.7753,"Type":"SOUP_KITCHEN"},{"Address":"175 Beach Street","Borough":"Staten Is","Name":"Trinity Lutheran Church","Zip Code":10304,"borocode":null,"city":"Staten Is","council district":49,"datadate":"FBNYC: 2016-08-05","dataname":"FBNYC: FBNYC Food Pantry Soup Kitchen List 8-5-16","datasource":"FBNYC","facdomain":"Health and Human Services","facgroup":"Human Services","facsubgrp":"Soup Kitchens and Food Pantries","factype":"Soup Kitchen","lat":40.630238,"lng":-74.081131,"opabbrev":"Non-public","opname":"Trinity Lutheran Church","optype":"Non-public","overabbrev":"Non-public","overagency":"Non-public","overlevel":"Non-public Oversight","pgtable":"foodbankny_facilities_foodbanks","street":"Beach Street","xcoord":961730.4296,"ycoord":168899.6258,"Type":"SOUP_KITCHEN"},{"Address":"886 Westchester Avenue","Borough":"Bronx","Name":"St. Ann's Corner Of Harm Reduction","Zip Code":10459,"borocode":2.0,"city":"Bronx","council district":17,"datadate":"FBNYC: 2016-08-05","dataname":"FBNYC: FBNYC Food Pantry Soup Kitchen List 8-5-16","datasource":"FBNYC","facdomain":"Health and Human Services","facgroup":"Human Services","facsubgrp":"Soup Kitchens and Food Pantries","factype":"Soup Kitchen","lat":40.82039,"lng":-73.899517,"opabbrev":"Non-public","opname":"St. Ann's Corner Of Harm Reduction","optype":"Non-public","overabbrev":"Non-public","overagency":"Non-public","overlevel":"Non-public Oversight","pgtable":"foodbankny_facilities_foodbanks","street":"Westchester Avenue","xcoord":1012061.7251,"ycoord":238183.2274,"Type":"SOUP_KITCHEN"},{"Address":"90 Lafayette Street","Borough":"Manhattan","Name":"New York City Rescue Mission","Zip Code":10013,"borocode":1.0,"city":"New York","council district":1,"datadate":"FBNYC: 2016-08-05","dataname":"FBNYC: FBNYC Food Pantry Soup Kitchen List 8-5-16","datasource":"FBNYC","facdomain":"Health and Human Services","facgroup":"Human Services","facsubgrp":"Soup Kitchens and Food Pantries","factype":"Soup Kitchen","lat":40.717543,"lng":-74.001614,"opabbrev":"Non-public","opname":"New York City Rescue Mission","optype":"Non-public","overabbrev":"Non-public","overagency":"Non-public","overlevel":"Non-public Oversight","pgtable":"foodbankny_facilities_foodbanks","street":"Lafayette Street","xcoord":983802.5055,"ycoord":200696.8603,"Type":"SOUP_KITCHEN"},{"Address":"15 Broad Street","Borough":"Staten Is","Name":"The Salvation Army Stapleton Corps","Zip Code":10304,"borocode":null,"city":"Staten Is","council district":49,"datadate":"FBNYC: 2016-08-05","dataname":"FBNYC: FBNYC Food Pantry Soup Kitchen List 8-5-16","datasource":"FBNYC","facdomain":"Health and Human Services","facgroup":"Human Services","facsubgrp":"Soup Kitchens and Food Pantries","factype":"Soup Kitchen","lat":40.625811,"lng":-74.075702,"opabbrev":"Non-public","opname":"The Salvation Army Stapleton Corps","optype":"Non-public","overabbrev":"Non-public","overagency":"Non-public","overlevel":"Non-public Oversight","pgtable":"foodbankny_facilities_foodbanks","street":"Broad Street","xcoord":963235.8921000001,"ycoord":167285.4074,"Type":"SOUP_KITCHEN"},{"Address":"2759 Webster Avenue","Borough":"Bronx","Name":"Part of the Solution (POTS)","Zip Code":10458,"borocode":2.0,"city":"Bronx","council district":15,"datadate":"FBNYC: 2016-08-05","dataname":"FBNYC: FBNYC Food Pantry Soup Kitchen List 8-5-16","datasource":"FBNYC","facdomain":"Health and Human Services","facgroup":"Human Services","facsubgrp":"Soup Kitchens and Food Pantries","factype":"Soup Kitchen","lat":40.865847,"lng":-73.88667,"opabbrev":"Non-public","opname":"Part of the Solution (POTS)","optype":"Non-public","overabbrev":"Non-public","overagency":"Non-public","overlevel":"Non-public Oversight","pgtable":"foodbankny_facilities_foodbanks","street":"Webster Avenue","xcoord":1015596.1437,"ycoord":254749.3865,"Type":"SOUP_KITCHEN"},{"Address":"5518 Church Avenue","Borough":"Brooklyn","Name":"Brooklyn Faith SDA Church","Zip Code":11203,"borocode":3.0,"city":"Brooklyn","council district":41,"datadate":"FBNYC: 2016-08-05","dataname":"FBNYC: FBNYC Food Pantry Soup Kitchen List 8-5-16","datasource":"FBNYC","facdomain":"Health and Human Services","facgroup":"Human Services","facsubgrp":"Soup Kitchens and Food Pantries","factype":"Soup Kitchen","lat":40.652295,"lng":-73.924907,"opabbrev":"Non-public","opname":"Brooklyn Faith SDA Church","optype":"Non-public","overabbrev":"Non-public","overagency":"Non-public","overlevel":"Non-public Oversight","pgtable":"foodbankny_facilities_foodbanks","street":"Church Avenue","xcoord":1005086.8011,"ycoord":176934.0454,"Type":"SOUP_KITCHEN"},{"Address":"175 East  125 Street","Borough":"Manhattan","Name":"The Salvation Army Manhattan Citadel","Zip Code":10035,"borocode":1.0,"city":"New York","council district":9,"datadate":"FBNYC: 2016-08-05","dataname":"FBNYC: FBNYC Food Pantry Soup Kitchen List 8-5-16","datasource":"FBNYC","facdomain":"Health and Human Services","facgroup":"Human Services","facsubgrp":"Soup Kitchens and Food Pantries","factype":"Soup Kitchen","lat":40.804182,"lng":-73.935855,"opabbrev":"Non-public","opname":"The Salvation Army Manhattan Citadel","optype":"Non-public","overabbrev":"Non-public","overagency":"Non-public","overlevel":"Non-public Oversight","pgtable":"foodbankny_facilities_foodbanks","street":"East  125 Street","xcoord":1002008.2892,"ycoord":232268.7184,"Type":"SOUP_KITCHEN"},{"Address":"457 Grand Avenue","Borough":"Brooklyn","Name":"Bethel Seventh-Day Adventist Church","Zip Code":11238,"borocode":3.0,"city":"Brooklyn","council district":36,"datadate":"FBNYC: 2016-08-05","dataname":"FBNYC: FBNYC Food Pantry Soup Kitchen List 8-5-16","datasource":"FBNYC","facdomain":"Health and Human Services","facgroup":"Human Services","facsubgrp":"Soup Kitchens and Food Pantries","factype":"Soup Kitchen","lat":40.681708,"lng":-73.961182,"opabbrev":"Non-public","opname":"Bethel Seventh-Day Adventist Church","optype":"Non-public","overabbrev":"Non-public","overagency":"Non-public","overlevel":"Non-public Oversight","pgtable":"foodbankny_facilities_foodbanks","street":"Grand Avenue","xcoord":995016.5033,"ycoord":187643.4517,"Type":"SOUP_KITCHEN"},{"Address":"732 East  233 Street","Borough":"Bronx","Name":"East 233rd Street Senior Center","Zip Code":10466,"borocode":2.0,"city":"Bronx","council district":12,"datadate":"FBNYC: 2016-08-05","dataname":"FBNYC: FBNYC Food Pantry Soup Kitchen List 8-5-16","datasource":"FBNYC","facdomain":"Health and Human Services","facgroup":"Human Services","facsubgrp":"Soup Kitchens and Food Pantries","factype":"Soup Kitchen","lat":40.892787,"lng":-73.856157,"opabbrev":"Non-public","opname":"East 233rd Street Senior Center","optype":"Non-public","overabbrev":"Non-public","overagency":"Non-public","overlevel":"Non-public Oversight","pgtable":"foodbankny_facilities_foodbanks","street":"East  233 Street","xcoord":1024019.5857000001,"ycoord":264577.0017,"Type":"SOUP_KITCHEN"},{"Address":"257 Macon Street","Borough":"Brooklyn","Name":"Newman Memorial United Methodist Church","Zip Code":11216,"borocode":3.0,"city":"Brooklyn","council district":36,"datadate":"FBNYC: 2016-08-05","dataname":"FBNYC: FBNYC Food Pantry Soup Kitchen List 8-5-16","datasource":"FBNYC","facdomain":"Health and Human Services","facgroup":"Human Services","facsubgrp":"Soup Kitchens and Food Pantries","factype":"Soup Kitchen","lat":40.682294,"lng":-73.941104,"opabbrev":"Non-public","opname":"Newman Memorial United Methodist Church","optype":"Non-public","overabbrev":"Non-public","overagency":"Non-public","overlevel":"Non-public Oversight","pgtable":"foodbankny_facilities_foodbanks","street":"Macon Street","xcoord":1000585.1835,"ycoord":187860.1437,"Type":"SOUP_KITCHEN"},{"Address":"2 Astor Place","Borough":"Manhattan","Name":"Hetrick- Martin Institute","Zip Code":10003,"borocode":1.0,"city":"New York","council district":2,"datadate":"FBNYC: 2016-08-05;NYCDCAS: 2017-06-01","dataname":"FBNYC: FBNYC Food Pantry Soup Kitchen List 8-5-16;NYCDCAS: City Owned and Leased Properties","datasource":"FBNYC;NYCDCAS","facdomain":"Health and Human Services","facgroup":"Human Services","facsubgrp":"Soup Kitchens and Food Pantries","factype":"Soup Kitchen","lat":40.72978,"lng":-73.992721,"opabbrev":"Non-public","opname":"Hetrick- Martin Institute","optype":"Non-public","overabbrev":"Non-public","overagency":"Non-public","overlevel":"Non-public Oversight","pgtable":"dcas_facilities_colp;foodbankny_facilities_foodbanks","street":"Astor Place","xcoord":986267.3517999999,"ycoord":205155.0347,"Type":"SOUP_KITCHEN"},{"Address":"111-54 Merrick Boulevard","Borough":"Queens","Name":"Allen Outreach Ministry Feeding Program","Zip Code":11433,"borocode":4.0,"city":"Jamaica","council district":27,"datadate":"FBNYC: 2016-08-05","dataname":"FBNYC: FBNYC Food Pantry Soup Kitchen List 8-5-16","datasource":"FBNYC","facdomain":"Health and Human Services","facgroup":"Human Services","facsubgrp":"Soup Kitchens and Food Pantries","factype":"Soup Kitchen","lat":40.693051,"lng":-73.780763,"opabbrev":"Non-public","opname":"Allen Outreach Ministry Feeding Program","optype":"Non-public","overabbrev":"Non-public","overagency":"Non-public","overlevel":"Non-public Oversight","pgtable":"foodbankny_facilities_foodbanks","street":"Merrick Boulevard","xcoord":1045046.6239,"ycoord":191849.6657,"Type":"SOUP_KITCHEN"},{"Address":"1496 Commonwealth Avenue","Borough":"Bronx","Name":"St. Anthony of Padua Church","Zip Code":10460,"borocode":2.0,"city":"Bronx","council district":18,"datadate":"FBNYC: 2016-08-05","dataname":"FBNYC: FBNYC Food Pantry Soup Kitchen List 8-5-16","datasource":"FBNYC","facdomain":"Health and Human Services","facgroup":"Human Services","facsubgrp":"Soup Kitchens and Food Pantries","factype":"Soup Kitchen","lat":40.837864,"lng":-73.868895,"opabbrev":"Non-public","opname":"St. Anthony of Padua Church","optype":"Non-public","overabbrev":"Non-public","overagency":"Non-public","overlevel":"Non-public Oversight","pgtable":"foodbankny_facilities_foodbanks","street":"Commonwealth Avenue","xcoord":1020527.5932999999,"ycoord":244560.9431,"Type":"SOUP_KITCHEN"},{"Address":"114 East  188 Street","Borough":"Bronx","Name":"Creston Avenue Baptist Church","Zip Code":10468,"borocode":2.0,"city":"Bronx","council district":14,"datadate":"FBNYC: 2016-08-05","dataname":"FBNYC: FBNYC Food Pantry Soup Kitchen List 8-5-16","datasource":"FBNYC","facdomain":"Health and Human Services","facgroup":"Human Services","facsubgrp":"Soup Kitchens and Food Pantries","factype":"Soup Kitchen","lat":40.861686,"lng":-73.899155,"opabbrev":"Non-public","opname":"Creston Avenue Baptist Church","optype":"Non-public","overabbrev":"Non-public","overagency":"Non-public","overlevel":"Non-public Oversight","pgtable":"foodbankny_facilities_foodbanks","street":"East  188 Street","xcoord":1012144.5946,"ycoord":253229.2555,"Type":"SOUP_KITCHEN"},{"Address":"467 Rutland Road","Borough":"Brooklyn","Name":"Crown Heights Community Outreach Center","Zip Code":11203,"borocode":3.0,"city":"Brooklyn","council district":40,"datadate":"FBNYC: 2016-08-05","dataname":"FBNYC: FBNYC Food Pantry Soup Kitchen List 8-5-16","datasource":"FBNYC","facdomain":"Health and Human Services","facgroup":"Human Services","facsubgrp":"Soup Kitchens and Food Pantries","factype":"Soup Kitchen","lat":40.659968,"lng":-73.945022,"opabbrev":"Non-public","opname":"Crown Heights Community Outreach Center","optype":"Non-public","overabbrev":"Non-public","overagency":"Non-public","overlevel":"Non-public Oversight","pgtable":"foodbankny_facilities_foodbanks","street":"Rutland Road","xcoord":999503.4035,"ycoord":179725.3582,"Type":"SOUP_KITCHEN"},{"Address":"89-60 164 Street","Borough":"Queens","Name":"First Presbyterian Church Of Jamaica","Zip Code":11432,"borocode":4.0,"city":"Jamaica","council district":24,"datadate":"FBNYC: 2016-08-05","dataname":"FBNYC: FBNYC Food Pantry Soup Kitchen List 8-5-16","datasource":"FBNYC","facdomain":"Health and Human Services","facgroup":"Human Services","facsubgrp":"Soup Kitchens and Food Pantries","factype":"Soup Kitchen","lat":40.705788,"lng":-73.79665,"opabbrev":"Non-public","opname":"First Presbyterian Church Of Jamaica","optype":"Non-public","overabbrev":"Non-public","overagency":"Non-public","overlevel":"Non-public Oversight","pgtable":"foodbankny_facilities_foodbanks","street":"164 Street","xcoord":1040630.0647,"ycoord":196479.4698,"Type":"SOUP_KITCHEN"},{"Address":"225 West   99 Street","Borough":"Manhattan","Name":"St. Michael's Church","Zip Code":10025,"borocode":1.0,"city":"New York","council district":7,"datadate":"FBNYC: 2016-08-05","dataname":"FBNYC: FBNYC Food Pantry Soup Kitchen List 8-5-16","datasource":"FBNYC","facdomain":"Health and Human Services","facgroup":"Human Services","facsubgrp":"Soup Kitchens and Food Pantries","factype":"Soup Kitchen","lat":40.796536,"lng":-73.969302,"opabbrev":"Non-public","opname":"St. Michael's Church","optype":"Non-public","overabbrev":"Non-public","overagency":"Non-public","overlevel":"Non-public Oversight","pgtable":"foodbankny_facilities_foodbanks","street":"West   99 Street","xcoord":992749.7421,"ycoord":229478.0839,"Type":"SOUP_KITCHEN"},{"Address":"1768 St Johns Place","Borough":"Brooklyn","Name":"OPIN (Other People In Need)","Zip Code":11233,"borocode":3.0,"city":"Brooklyn","council district":41,"datadate":"FBNYC: 2016-08-05","dataname":"FBNYC: FBNYC Food Pantry Soup Kitchen List 8-5-16","datasource":"FBNYC","facdomain":"Health and Human Services","facgroup":"Human Services","facsubgrp":"Soup Kitchens and Food Pantries","factype":"Soup Kitchen","lat":40.669615,"lng":-73.91852,"opabbrev":"Non-public","opname":"OPIN (Other People In Need)","optype":"Non-public","overabbrev":"Non-public","overagency":"Non-public","overlevel":"Non-public Oversight","pgtable":"foodbankny_facilities_foodbanks","street":"St Johns Place","xcoord":1006853.2514,"ycoord":183245.882,"Type":"SOUP_KITCHEN"},{"Address":"514 Bay Street","Borough":"Staten Is","Name":"Project Hospitality Inc.","Zip Code":10304,"borocode":null,"city":"Staten Is","council district":49,"datadate":"FBNYC: 2016-08-05","dataname":"FBNYC: FBNYC Food Pantry Soup Kitchen List 8-5-16","datasource":"FBNYC","facdomain":"Health and Human Services","facgroup":"Human Services","facsubgrp":"Soup Kitchens and Food Pantries","factype":"Soup Kitchen","lat":40.629401,"lng":-74.076894,"opabbrev":"Non-public","opname":"Project Hospitality Inc.","optype":"Non-public","overabbrev":"Non-public","overagency":"Non-public","overlevel":"Non-public Oversight","pgtable":"foodbankny_facilities_foodbanks","street":"Bay Street","xcoord":962906.2781,"ycoord":168593.6109,"Type":"SOUP_KITCHEN"},{"Address":"200 4 Avenue","Borough":"Brooklyn","Name":"Park Slope Christian Help Inc. (CHIPS)","Zip Code":11217,"borocode":3.0,"city":"Brooklyn","council district":33,"datadate":"FBNYC: 2016-08-05","dataname":"FBNYC: FBNYC Food Pantry Soup Kitchen List 8-5-16","datasource":"FBNYC","facdomain":"Health and Human Services","facgroup":"Human Services","facsubgrp":"Soup Kitchens and Food Pantries","factype":"Soup Kitchen","lat":40.678335,"lng":-73.982847,"opabbrev":"Non-public","opname":"Park Slope Christian Help Inc. (CHIPS)","optype":"Non-public","overabbrev":"Non-public","overagency":"Non-public","overlevel":"Non-public Oversight","pgtable":"foodbankny_facilities_foodbanks","street":"4 Avenue","xcoord":989007.7863,"ycoord":186412.7761,"Type":"SOUP_KITCHEN"},{"Address":"157-22 South Road","Borough":"Queens","Name":"The Harding Ford Vision, Inc.","Zip Code":11433,"borocode":4.0,"city":"Jamaica","council district":28,"datadate":"FBNYC: 2016-08-05","dataname":"FBNYC: FBNYC Food Pantry Soup Kitchen List 8-5-16","datasource":"FBNYC","facdomain":"Health and Human Services","facgroup":"Human Services","facsubgrp":"Soup Kitchens and Food Pantries","factype":"Soup Kitchen","lat":40.698147,"lng":-73.797056,"opabbrev":"Non-public","opname":"The Harding Ford Vision, Inc.","optype":"Non-public","overabbrev":"Non-public","overagency":"Non-public","overlevel":"Non-public Oversight","pgtable":"foodbankny_facilities_foodbanks","street":"South Road","xcoord":1040524.0341,"ycoord":193695.5729,"Type":"SOUP_KITCHEN"},{"Address":"298 Schenectady Avenue","Borough":"Brooklyn","Name":"St. Augustine American Catholic Church","Zip Code":11213,"borocode":3.0,"city":"Brooklyn","council district":35,"datadate":"FBNYC: 2016-08-05","dataname":"FBNYC: FBNYC Food Pantry Soup Kitchen List 8-5-16","datasource":"FBNYC","facdomain":"Health and Human Services","facgroup":"Human Services","facsubgrp":"Soup Kitchens and Food Pantries","factype":"Soup Kitchen","lat":40.668263,"lng":-73.934188,"opabbrev":"Non-public","opname":"St. Augustine American Catholic Church","optype":"Non-public","overabbrev":"Non-public","overagency":"Non-public","overlevel":"Non-public Oversight","pgtable":"foodbankny_facilities_foodbanks","street":"Schenectady Avenue","xcoord":1002507.1145,"ycoord":182749.43,"Type":"SOUP_KITCHEN"},{"Address":"236 West   73 Street","Borough":"Manhattan","Name":"Rutgers Thursday Nighters","Zip Code":10023,"borocode":1.0,"city":"New York","council district":6,"datadate":"FBNYC: 2016-08-05","dataname":"FBNYC: FBNYC Food Pantry Soup Kitchen List 8-5-16","datasource":"FBNYC","facdomain":"Health and Human Services","facgroup":"Human Services","facsubgrp":"Soup Kitchens and Food Pantries","factype":"Soup Kitchen","lat":40.779564,"lng":-73.982302,"opabbrev":"Non-public","opname":"Rutgers Thursday Nighters","optype":"Non-public","overabbrev":"Non-public","overagency":"Non-public","overlevel":"Non-public Oversight","pgtable":"foodbankny_facilities_foodbanks","street":"West   73 Street","xcoord":989151.3334999999,"ycoord":223293.4149,"Type":"SOUP_KITCHEN"},{"Address":"132 West   14 Street","Borough":"Manhattan","Name":"Salvation Army New York Temple","Zip Code":10011,"borocode":1.0,"city":"New York","council district":3,"datadate":"FBNYC: 2016-08-05","dataname":"FBNYC: FBNYC Food Pantry Soup Kitchen List 8-5-16","datasource":"FBNYC","facdomain":"Health and Human Services","facgroup":"Human Services","facsubgrp":"Soup Kitchens and Food Pantries","factype":"Soup Kitchen","lat":40.737801,"lng":-73.998636,"opabbrev":"Non-public","opname":"Salvation Army New York Temple","optype":"Non-public","overabbrev":"Non-public","overagency":"Non-public","overlevel":"Non-public Oversight","pgtable":"foodbankny_facilities_foodbanks","street":"West   14 Street","xcoord":984628.0335,"ycoord":208077.4009,"Type":"SOUP_KITCHEN"},{"Address":"241 West   72 Street","Borough":"Manhattan","Name":"National Council of Jewish Women","Zip Code":10023,"borocode":1.0,"city":"New York","council district":6,"datadate":"FBNYC: 2016-08-05","dataname":"FBNYC: FBNYC Food Pantry Soup Kitchen List 8-5-16","datasource":"FBNYC","facdomain":"Health and Human Services","facgroup":"Human Services","facsubgrp":"Soup Kitchens and Food Pantries","factype":"Soup Kitchen","lat":40.779504,"lng":-73.982994,"opabbrev":"Non-public","opname":"National Council of Jewish Women","optype":"Non-public","overabbrev":"Non-public","overagency":"Non-public","overlevel":"Non-public Oversight","pgtable":"foodbankny_facilities_foodbanks","street":"West   72 Street","xcoord":988959.8709,"ycoord":223271.4614,"Type":"SOUP_KITCHEN"},{"Address":"187-10 Baisley Boulevard","Borough":"Queens","Name":"First Church of God in Christ","Zip Code":11412,"borocode":4.0,"city":"Saint Albans","council district":27,"datadate":"FBNYC: 2016-08-05","dataname":"FBNYC: FBNYC Food Pantry Soup Kitchen List 8-5-16","datasource":"FBNYC","facdomain":"Health and Human Services","facgroup":"Human Services","facsubgrp":"Soup Kitchens and Food Pantries","factype":"Soup Kitchen","lat":40.690194,"lng":-73.762932,"opabbrev":"Non-public","opname":"First Church of God in Christ","optype":"Non-public","overabbrev":"Non-public","overagency":"Non-public","overlevel":"Non-public Oversight","pgtable":"foodbankny_facilities_foodbanks","street":"Baisley Boulevard","xcoord":1049993.9605,"ycoord":190821.5925,"Type":"SOUP_KITCHEN"},{"Address":"1047 Amsterdam Avenue","Borough":"Manhattan","Name":"Cathedral Community Cares","Zip Code":10025,"borocode":1.0,"city":"New York","council district":7,"datadate":"FBNYC: 2016-08-05","dataname":"FBNYC: FBNYC Food Pantry Soup Kitchen List 8-5-16","datasource":"FBNYC","facdomain":"Health and Human Services","facgroup":"Human Services","facsubgrp":"Soup Kitchens and Food Pantries","factype":"Soup Kitchen","lat":40.803746,"lng":-73.961662,"opabbrev":"Non-public","opname":"Cathedral Community Cares","optype":"Non-public","overabbrev":"Non-public","overagency":"Non-public","overlevel":"Non-public Oversight","pgtable":"foodbankny_facilities_foodbanks","street":"Amsterdam Avenue","xcoord":994863.8763,"ycoord":232105.8568,"Type":"SOUP_KITCHEN"},{"Address":"106-60 Union Hall Street","Borough":"Queens","Name":"Mt. Zion Baptist Church Mission Outreach","Zip Code":11433,"borocode":4.0,"city":"Jamaica","council district":28,"datadate":"FBNYC: 2016-08-05","dataname":"FBNYC: FBNYC Food Pantry Soup Kitchen List 8-5-16","datasource":"FBNYC","facdomain":"Health and Human Services","facgroup":"Human Services","facsubgrp":"Soup Kitchens and Food Pantries","factype":"Soup Kitchen","lat":40.697782,"lng":-73.793675,"opabbrev":"Non-public","opname":"Mt. Zion Baptist Church Mission Outreach","optype":"Non-public","overabbrev":"Non-public","overagency":"Non-public","overlevel":"Non-public Oversight","pgtable":"foodbankny_facilities_foodbanks","street":"Union Hall Street","xcoord":1041461.8485,"ycoord":193564.683,"Type":"SOUP_KITCHEN"},{"Address":"201 West   13 Street","Borough":"Manhattan","Name":"The Church of the Village - Hope for Our Neighbors","Zip Code":10011,"borocode":1.0,"city":"New York","council district":3,"datadate":"FBNYC: 2016-08-05","dataname":"FBNYC: FBNYC Food Pantry Soup Kitchen List 8-5-16","datasource":"FBNYC","facdomain":"Health and Human Services","facgroup":"Human Services","facsubgrp":"Soup Kitchens and Food Pantries","factype":"Soup Kitchen","lat":40.738156,"lng":-74.000394,"opabbrev":"Non-public","opname":"The Church of the Village - Hope for Our Neighbors","optype":"Non-public","overabbrev":"Non-public","overagency":"Non-public","overlevel":"Non-public Oversight","pgtable":"foodbankny_facilities_foodbanks","street":"West   13 Street","xcoord":984140.8491,"ycoord":208206.7762,"Type":"SOUP_KITCHEN"},{"Address":"90-23 161 Street","Borough":"Queens","Name":"The Salvation Army Jamaica Citadel","Zip Code":11432,"borocode":4.0,"city":"Jamaica","council district":24,"datadate":"FBNYC: 2016-08-05","dataname":"FBNYC: FBNYC Food Pantry Soup Kitchen List 8-5-16","datasource":"FBNYC","facdomain":"Health and Human Services","facgroup":"Human Services","facsubgrp":"Soup Kitchens and Food Pantries","factype":"Soup Kitchen","lat":40.704861,"lng":-73.798697,"opabbrev":"Non-public","opname":"The Salvation Army Jamaica Citadel","optype":"Non-public","overabbrev":"Non-public","overagency":"Non-public","overlevel":"Non-public Oversight","pgtable":"foodbankny_facilities_foodbanks","street":"161 Street","xcoord":1040063.3101,"ycoord":196140.3859,"Type":"SOUP_KITCHEN"},{"Address":"85 East  165 Street","Borough":"Bronx","Name":"Momentum Project Inc. @ COGOP","Zip Code":10452,"borocode":2.0,"city":"Bronx","council district":16,"datadate":"FBNYC: 2016-08-05","dataname":"FBNYC: FBNYC Food Pantry Soup Kitchen List 8-5-16","datasource":"FBNYC","facdomain":"Health and Human Services","facgroup":"Human Services","facsubgrp":"Soup Kitchens and Food Pantries","factype":"Soup Kitchen","lat":40.831745,"lng":-73.922125,"opabbrev":"Non-public","opname":"Momentum Project Inc. @ COGOP","optype":"Non-public","overabbrev":"Non-public","overagency":"Non-public","overlevel":"Non-public Oversight","pgtable":"foodbankny_facilities_foodbanks","street":"East  165 Street","xcoord":1005800.4788,"ycoord":242314.1691,"Type":"SOUP_KITCHEN"},{"Address":"371 Avenue Of The Americas","Borough":"Manhattan","Name":"St. Josephs Soup Kitchen Incorporated","Zip Code":10014,"borocode":1.0,"city":"New York","council district":3,"datadate":"FBNYC: 2016-08-05","dataname":"FBNYC: FBNYC Food Pantry Soup Kitchen List 8-5-16","datasource":"FBNYC","facdomain":"Health and Human Services","facgroup":"Human Services","facsubgrp":"Soup Kitchens and Food Pantries","factype":"Soup Kitchen","lat":40.732758,"lng":-74.000602,"opabbrev":"Non-public","opname":"St. Josephs Soup Kitchen Incorporated","optype":"Non-public","overabbrev":"Non-public","overagency":"Non-public","overlevel":"Non-public Oversight","pgtable":"foodbankny_facilities_foodbanks","street":"Avenue Of The Americas","xcoord":984083.2859,"ycoord":206239.9583,"Type":"SOUP_KITCHEN"},{"Address":"543 East   11 Street","Borough":"Manhattan","Name":"Father's Heart Ministries","Zip Code":10009,"borocode":1.0,"city":"New York","council district":2,"datadate":"FBNYC: 2016-08-05","dataname":"FBNYC: FBNYC Food Pantry Soup Kitchen List 8-5-16","datasource":"FBNYC","facdomain":"Health and Human Services","facgroup":"Human Services","facsubgrp":"Soup Kitchens and Food Pantries","factype":"Soup Kitchen","lat":40.727884,"lng":-73.979868,"opabbrev":"Non-public","opname":"Father's Heart Ministries","optype":"Non-public","overabbrev":"Non-public","overagency":"Non-public","overlevel":"Non-public Oversight","pgtable":"foodbankny_facilities_foodbanks","street":"East   11 Street","xcoord":989829.8861,"ycoord":204464.9189,"Type":"SOUP_KITCHEN"},{"Address":"304 Port Richmond Avenue","Borough":"Staten Is","Name":"Meals on Wheels of Staten Island Inc.","Zip Code":10302,"borocode":null,"city":"Staten Is","council district":49,"datadate":"FBNYC: 2016-08-05","dataname":"FBNYC: FBNYC Food Pantry Soup Kitchen List 8-5-16","datasource":"FBNYC","facdomain":"Health and Human Services","facgroup":"Human Services","facsubgrp":"Soup Kitchens and Food Pantries","factype":"Soup Kitchen","lat":40.634224,"lng":-74.136275,"opabbrev":"Non-public","opname":"Meals on Wheels of Staten Island Inc.","optype":"Non-public","overabbrev":"Non-public","overagency":"Non-public","overlevel":"Non-public Oversight","pgtable":"foodbankny_facilities_foodbanks","street":"Port Richmond Avenue","xcoord":946426.426,"ycoord":170370.8334,"Type":"SOUP_KITCHEN"},{"Address":"602 East    9 Street","Borough":"Manhattan","Name":"Trinity's Services and Food for the Homeless Inc.","Zip Code":10009,"borocode":1.0,"city":"New York","council district":2,"datadate":"FBNYC: 2016-08-05","dataname":"FBNYC: FBNYC Food Pantry Soup Kitchen List 8-5-16","datasource":"FBNYC","facdomain":"Health and Human Services","facgroup":"Human Services","facsubgrp":"Soup Kitchens and Food Pantries","factype":"Soup Kitchen","lat":40.726018,"lng":-73.980122,"opabbrev":"Non-public","opname":"Trinity's Services and Food for the Homeless Inc.","optype":"Non-public","overabbrev":"Non-public","overagency":"Non-public","overlevel":"Non-public Oversight","pgtable":"foodbankny_facilities_foodbanks","street":"East    9 Street","xcoord":989759.5058,"ycoord":203785.1515,"Type":"SOUP_KITCHEN"},{"Address":"603 Prospect Avenue","Borough":"Bronx","Name":"United Bronx Parents","Zip Code":10455,"borocode":2.0,"city":"Bronx","council district":8,"datadate":"FBNYC: 2016-08-05","dataname":"FBNYC: FBNYC Food Pantry Soup Kitchen List 8-5-16","datasource":"FBNYC","facdomain":"Health and Human Services","facgroup":"Human Services","facsubgrp":"Soup Kitchens and Food Pantries","factype":"Soup Kitchen","lat":40.813984,"lng":-73.904198,"opabbrev":"Non-public","opname":"United Bronx Parents","optype":"Non-public","overabbrev":"Non-public","overagency":"Non-public","overlevel":"Non-public Oversight","pgtable":"foodbankny_facilities_foodbanks","street":"Prospect Avenue","xcoord":1010768.6898000001,"ycoord":235848.0233,"Type":"SOUP_KITCHEN"},{"Address":"71 Malta Street","Borough":"Brooklyn","Name":"Church of God of Prophecy","Zip Code":11207,"borocode":3.0,"city":"Brooklyn","council district":42,"datadate":"FBNYC: 2016-08-05","dataname":"FBNYC: FBNYC Food Pantry Soup Kitchen List 8-5-16","datasource":"FBNYC","facdomain":"Health and Human Services","facgroup":"Human Services","facsubgrp":"Soup Kitchens and Food Pantries","factype":"Soup Kitchen","lat":40.659047,"lng":-73.894984,"opabbrev":"Non-public","opname":"Church of God of Prophecy","optype":"Non-public","overabbrev":"Non-public","overagency":"Non-public","overlevel":"Non-public Oversight","pgtable":"foodbankny_facilities_foodbanks","street":"Malta Street","xcoord":1013386.8632,"ycoord":179402.2868,"Type":"SOUP_KITCHEN"},{"Address":"211 West  129 Street","Borough":"Manhattan","Name":"Salem United Methodist Church","Zip Code":10027,"borocode":1.0,"city":"New York","council district":9,"datadate":"FBNYC: 2016-08-05","dataname":"FBNYC: FBNYC Food Pantry Soup Kitchen List 8-5-16","datasource":"FBNYC","facdomain":"Health and Human Services","facgroup":"Human Services","facsubgrp":"Soup Kitchens and Food Pantries","factype":"Soup Kitchen","lat":40.812012,"lng":-73.947052,"opabbrev":"Non-public","opname":"Salem United Methodist Church","optype":"Non-public","overabbrev":"Non-public","overagency":"Non-public","overlevel":"Non-public Oversight","pgtable":"foodbankny_facilities_foodbanks","street":"West  129 Street","xcoord":998906.7916,"ycoord":235119.2785,"Type":"SOUP_KITCHEN"},{"Address":"419 West  126 Street","Borough":"Manhattan","Name":"Central Harlem Alcohol Crisis Center","Zip Code":10027,"borocode":1.0,"city":"New York","council district":7,"datadate":"FBNYC: 2016-08-05","dataname":"FBNYC: FBNYC Food Pantry Soup Kitchen List 8-5-16","datasource":"FBNYC","facdomain":"Health and Human Services","facgroup":"Human Services","facsubgrp":"Soup Kitchens and Food Pantries","factype":"Soup Kitchen","lat":40.81276,"lng":-73.954079,"opabbrev":"Non-public","opname":"Central Harlem Alcohol Crisis Center","optype":"Non-public","overabbrev":"Non-public","overagency":"Non-public","overlevel":"Non-public Oversight","pgtable":"foodbankny_facilities_foodbanks","street":"West  126 Street","xcoord":996961.6026,"ycoord":235390.973,"Type":"SOUP_KITCHEN"},{"Address":"578 East  166 Street","Borough":"Bronx","Name":"Manna of Life Ministries, Inc.","Zip Code":10456,"borocode":2.0,"city":"Bronx","council district":16,"datadate":"FBNYC: 2016-08-05","dataname":"FBNYC: FBNYC Food Pantry Soup Kitchen List 8-5-16","datasource":"FBNYC","facdomain":"Health and Human Services","facgroup":"Human Services","facsubgrp":"Soup Kitchens and Food Pantries","factype":"Soup Kitchen","lat":40.827487,"lng":-73.9057,"opabbrev":"Non-public","opname":"Manna of Life Ministries, Inc.","optype":"Non-public","overabbrev":"Non-public","overagency":"Non-public","overlevel":"Non-public Oversight","pgtable":"foodbankny_facilities_foodbanks","street":"East  166 Street","xcoord":1010347.6875,"ycoord":240767.0516,"Type":"SOUP_KITCHEN"},{"Address":"2290 1 Avenue","Borough":"Manhattan","Name":"Fraternite Notre Dame","Zip Code":10035,"borocode":1.0,"city":"New York","council district":8,"datadate":"FBNYC: 2016-08-05","dataname":"FBNYC: FBNYC Food Pantry Soup Kitchen List 8-5-16","datasource":"FBNYC","facdomain":"Health and Human Services","facgroup":"Human Services","facsubgrp":"Soup Kitchens and Food Pantries","factype":"Soup Kitchen","lat":40.797019,"lng":-73.934351,"opabbrev":"Non-public","opname":"Fraternite Notre Dame","optype":"Non-public","overabbrev":"Non-public","overagency":"Non-public","overlevel":"Non-public Oversight","pgtable":"foodbankny_facilities_foodbanks","street":"1 Avenue","xcoord":1002426.7293,"ycoord":229659.3214,"Type":"SOUP_KITCHEN"},{"Address":"86-07 35 Avenue","Borough":"Queens","Name":"The Salvation Army - Templo de Queens","Zip Code":11372,"borocode":4.0,"city":"Jackson Heights","council district":25,"datadate":"FBNYC: 2016-08-05","dataname":"FBNYC: FBNYC Food Pantry Soup Kitchen List 8-5-16","datasource":"FBNYC","facdomain":"Health and Human Services","facgroup":"Human Services","facsubgrp":"Soup Kitchens and Food Pantries","factype":"Soup Kitchen","lat":40.752448,"lng":-73.880666,"opabbrev":"Non-public","opname":"The Salvation Army - Templo de Queens","optype":"Non-public","overabbrev":"Non-public","overagency":"Non-public","overlevel":"Non-public Oversight","pgtable":"foodbankny_facilities_foodbanks","street":"35 Avenue","xcoord":1017313.0263,"ycoord":213436.1747,"Type":"SOUP_KITCHEN"},{"Address":"461 Decatur Street","Borough":"Brooklyn","Name":"Union Baptist Church","Zip Code":11233,"borocode":3.0,"city":"Brooklyn","council district":41,"datadate":"FBNYC: 2016-08-05","dataname":"FBNYC: FBNYC Food Pantry Soup Kitchen List 8-5-16","datasource":"FBNYC","facdomain":"Health and Human Services","facgroup":"Human Services","facsubgrp":"Soup Kitchens and Food Pantries","factype":"Soup Kitchen","lat":40.682678,"lng":-73.924724,"opabbrev":"Non-public","opname":"Union Baptist Church","optype":"Non-public","overabbrev":"Non-public","overagency":"Non-public","overlevel":"Non-public Oversight","pgtable":"foodbankny_facilities_foodbanks","street":"Decatur Street","xcoord":1005127.9201,"ycoord":188003.4798,"Type":"SOUP_KITCHEN"},{"Address":"881 East  167 Street","Borough":"Bronx","Name":"Loyal Baptist Church","Zip Code":10459,"borocode":2.0,"city":"Bronx","council district":17,"datadate":"FBNYC: 2016-08-05","dataname":"FBNYC: FBNYC Food Pantry Soup Kitchen List 8-5-16","datasource":"FBNYC","facdomain":"Health and Human Services","facgroup":"Human Services","facsubgrp":"Soup Kitchens and Food Pantries","factype":"Soup Kitchen","lat":40.826203,"lng":-73.896227,"opabbrev":"Non-public","opname":"Loyal Baptist Church","optype":"Non-public","overabbrev":"Non-public","overagency":"Non-public","overlevel":"Non-public Oversight","pgtable":"foodbankny_facilities_foodbanks","street":"East  167 Street","xcoord":1012969.7016,"ycoord":240302.3357,"Type":"SOUP_KITCHEN"},{"Address":"229 East 118th Street (Ground Floor)","Borough":"Manhattan","Name":"Friendly Hands Ministry Inc.","Zip Code":10035,"borocode":1.0,"city":"New York","council district":8,"datadate":"FBNYC: 2016-08-05","dataname":"FBNYC: FBNYC Food Pantry Soup Kitchen List 8-5-16","datasource":"FBNYC","facdomain":"Health and Human Services","facgroup":"Human Services","facsubgrp":"Soup Kitchens and Food Pantries","factype":"Soup Kitchen","lat":40.798757,"lng":-73.938263,"opabbrev":"Non-public","opname":"Friendly Hands Ministry Inc.","optype":"Non-public","overabbrev":"Non-public","overagency":"Non-public","overlevel":"Non-public Oversight","pgtable":"foodbankny_facilities_foodbanks","street":"East 118th Street (Ground Floor)","xcoord":1001343.1267,"ycoord":230291.7202,"Type":"SOUP_KITCHEN"},{"Address":"1014 Gates Avenue","Borough":"Brooklyn","Name":"Faith Assemblies","Zip Code":11221,"borocode":3.0,"city":"Brooklyn","council district":41,"datadate":"FBNYC: 2016-08-05","dataname":"FBNYC: FBNYC Food Pantry Soup Kitchen List 8-5-16","datasource":"FBNYC","facdomain":"Health and Human Services","facgroup":"Human Services","facsubgrp":"Soup Kitchens and Food Pantries","factype":"Soup Kitchen","lat":40.689178,"lng":-73.92281,"opabbrev":"Non-public","opname":"Faith Assemblies","optype":"Non-public","overabbrev":"Non-public","overagency":"Non-public","overlevel":"Non-public Oversight","pgtable":"foodbankny_facilities_foodbanks","street":"Gates Avenue","xcoord":1005656.8813,"ycoord":190372.0526,"Type":"SOUP_KITCHEN"},{"Address":"59-02 Summerfield Street","Borough":"Queens","Name":"Agape Christian Center","Zip Code":11385,"borocode":4.0,"city":"Ridgewood","council district":34,"datadate":"FBNYC: 2016-08-05","dataname":"FBNYC: FBNYC Food Pantry Soup Kitchen List 8-5-16","datasource":"FBNYC","facdomain":"Health and Human Services","facgroup":"Human Services","facsubgrp":"Soup Kitchens and Food Pantries","factype":"Soup Kitchen","lat":40.699211,"lng":-73.897699,"opabbrev":"Non-public","opname":"Agape Christian Center","optype":"Non-public","overabbrev":"Non-public","overagency":"Non-public","overlevel":"Non-public Oversight","pgtable":"foodbankny_facilities_foodbanks","street":"Summerfield Street","xcoord":1012616.425,"ycoord":194034.4158,"Type":"SOUP_KITCHEN"},{"Address":"754 East Gun Hill Road","Borough":"Bronx","Name":"Immaculate Conception Church","Zip Code":10467,"borocode":2.0,"city":"Bronx","council district":12,"datadate":"FBNYC: 2016-08-05","dataname":"FBNYC: FBNYC Food Pantry Soup Kitchen List 8-5-16","datasource":"FBNYC","facdomain":"Health and Human Services","facgroup":"Human Services","facsubgrp":"Soup Kitchens and Food Pantries","factype":"Soup Kitchen","lat":40.876323,"lng":-73.864434,"opabbrev":"Non-public","opname":"Immaculate Conception Church","optype":"Non-public","overabbrev":"Non-public","overagency":"Non-public","overlevel":"Non-public Oversight","pgtable":"foodbankny_facilities_foodbanks","street":"East Gun Hill Road","xcoord":1021740.3468000001,"ycoord":258575.0148,"Type":"SOUP_KITCHEN"},{"Address":"144 Newport Street","Borough":"Brooklyn","Name":"Gethsemane Outreach Ministries Inc.","Zip Code":11212,"borocode":3.0,"city":"Brooklyn","council district":42,"datadate":"FBNYC: 2016-08-05","dataname":"FBNYC: FBNYC Food Pantry Soup Kitchen List 8-5-16","datasource":"FBNYC","facdomain":"Health and Human Services","facgroup":"Human Services","facsubgrp":"Soup Kitchens and Food Pantries","factype":"Soup Kitchen","lat":40.659011,"lng":-73.909764,"opabbrev":"Non-public","opname":"Gethsemane Outreach Ministries Inc.","optype":"Non-public","overabbrev":"Non-public","overagency":"Non-public","overlevel":"Non-public Oversight","pgtable":"foodbankny_facilities_foodbanks","street":"Newport Street","xcoord":1009286.1223,"ycoord":179384.9314,"Type":"SOUP_KITCHEN"},{"Address":"120 East   32 Street","Borough":"Manhattan","Name":"Grand Central Neighborhood Social Service Corp.","Zip Code":10016,"borocode":1.0,"city":"New York","council district":2,"datadate":"FBNYC: 2016-08-05","dataname":"FBNYC: FBNYC Food Pantry Soup Kitchen List 8-5-16","datasource":"FBNYC","facdomain":"Health and Human Services","facgroup":"Human Services","facsubgrp":"Soup Kitchens and Food Pantries","factype":"Soup Kitchen","lat":40.745206,"lng":-73.981468,"opabbrev":"Non-public","opname":"Grand Central Neighborhood Social Service Corp.","optype":"Non-public","overabbrev":"Non-public","overagency":"Non-public","overlevel":"Non-public Oversight","pgtable":"foodbankny_facilities_foodbanks","street":"East   32 Street","xcoord":989385.1479,"ycoord":210775.6506,"Type":"SOUP_KITCHEN"},{"Address":"540 Lenox Avenue","Borough":"Manhattan","Name":"Salvation Army Harlem Temple Corps","Zip Code":10037,"borocode":1.0,"city":"New York","council district":9,"datadate":"FBNYC: 2016-08-05","dataname":"FBNYC: FBNYC Food Pantry Soup Kitchen List 8-5-16","datasource":"FBNYC","facdomain":"Health and Human Services","facgroup":"Human Services","facsubgrp":"Soup Kitchens and Food Pantries","factype":"Soup Kitchen","lat":40.815546,"lng":-73.939287,"opabbrev":"Non-public","opname":"Salvation Army Harlem Temple Corps","optype":"Non-public","overabbrev":"Non-public","overagency":"Non-public","overlevel":"Non-public Oversight","pgtable":"foodbankny_facilities_foodbanks","street":"Lenox Avenue","xcoord":1001055.3432,"ycoord":236408.5256,"Type":"SOUP_KITCHEN"},{"Address":"719 East  223 Street","Borough":"Bronx","Name":"Shiloh Temple Pentecostal Church","Zip Code":10466,"borocode":2.0,"city":"Bronx","council district":12,"datadate":"FBNYC: 2016-08-05","dataname":"FBNYC: FBNYC Food Pantry Soup Kitchen List 8-5-16","datasource":"FBNYC","facdomain":"Health and Human Services","facgroup":"Human Services","facsubgrp":"Soup Kitchens and Food Pantries","factype":"Soup Kitchen","lat":40.886323,"lng":-73.860429,"opabbrev":"Non-public","opname":"Shiloh Temple Pentecostal Church","optype":"Non-public","overabbrev":"Non-public","overagency":"Non-public","overlevel":"Non-public Oversight","pgtable":"foodbankny_facilities_foodbanks","street":"East  223 Street","xcoord":1022842.2032,"ycoord":262219.8681,"Type":"SOUP_KITCHEN"},{"Address":"84 Quincy Street","Borough":"Brooklyn","Name":"Quincy Community Service Inc.","Zip Code":11238,"borocode":3.0,"city":"Brooklyn","council district":35,"datadate":"FBNYC: 2016-08-05","dataname":"FBNYC: FBNYC Food Pantry Soup Kitchen List 8-5-16","datasource":"FBNYC","facdomain":"Health and Human Services","facgroup":"Human Services","facsubgrp":"Soup Kitchens and Food Pantries","factype":"Soup Kitchen","lat":40.68593,"lng":-73.957914,"opabbrev":"Non-public","opname":"Quincy Community Service Inc.","optype":"Non-public","overabbrev":"Non-public","overagency":"Non-public","overlevel":"Non-public Oversight","pgtable":"foodbankny_facilities_foodbanks","street":"Quincy Street","xcoord":995922.0559,"ycoord":189182.0011,"Type":"SOUP_KITCHEN"},{"Address":"1034 Prospect Avenue","Borough":"Bronx","Name":"Come World Ministries, Inc.","Zip Code":10459,"borocode":2.0,"city":"Bronx","council district":17,"datadate":"FBNYC: 2016-08-05","dataname":"FBNYC: FBNYC Food Pantry Soup Kitchen List 8-5-16","datasource":"FBNYC","facdomain":"Health and Human Services","facgroup":"Human Services","facsubgrp":"Soup Kitchens and Food Pantries","factype":"Soup Kitchen","lat":40.824552,"lng":-73.899304,"opabbrev":"Non-public","opname":"Come World Ministries, Inc.","optype":"Non-public","overabbrev":"Non-public","overagency":"Non-public","overlevel":"Non-public Oversight","pgtable":"foodbankny_facilities_foodbanks","street":"Prospect Avenue","xcoord":1012118.9418,"ycoord":239699.7652,"Type":"SOUP_KITCHEN"},{"Address":"100-10 Astoria Boulevard","Borough":"Queens","Name":"First Baptist Church","Zip Code":11369,"borocode":4.0,"city":"East Elmhurst","council district":21,"datadate":"FBNYC: 2016-08-05","dataname":"FBNYC: FBNYC Food Pantry Soup Kitchen List 8-5-16","datasource":"FBNYC","facdomain":"Health and Human Services","facgroup":"Human Services","facsubgrp":"Soup Kitchens and Food Pantries","factype":"Soup Kitchen","lat":40.761505,"lng":-73.868818,"opabbrev":"Non-public","opname":"First Baptist Church","optype":"Non-public","overabbrev":"Non-public","overagency":"Non-public","overlevel":"Non-public Oversight","pgtable":"foodbankny_facilities_foodbanks","street":"Astoria Boulevard","xcoord":1020590.7556,"ycoord":216740.7978,"Type":"SOUP_KITCHEN"},{"Address":"180 Van Buren Street","Borough":"Brooklyn","Name":"Upper Room Full Gospel Baptist Church","Zip Code":11221,"borocode":3.0,"city":"Brooklyn","council district":36,"datadate":"FBNYC: 2016-08-05","dataname":"FBNYC: FBNYC Food Pantry Soup Kitchen List 8-5-16","datasource":"FBNYC","facdomain":"Health and Human Services","facgroup":"Human Services","facsubgrp":"Soup Kitchens and Food Pantries","factype":"Soup Kitchen","lat":40.69029,"lng":-73.939246,"opabbrev":"Non-public","opname":"Upper Room Full Gospel Baptist Church","optype":"Non-public","overabbrev":"Non-public","overagency":"Non-public","overlevel":"Non-public Oversight","pgtable":"foodbankny_facilities_foodbanks","street":"Van Buren Street","xcoord":1001098.3344000001,"ycoord":190773.3841,"Type":"SOUP_KITCHEN"},{"Address":"209 Rochester Avenue","Borough":"Brooklyn","Name":"New Gethsemane Baptist Church Feeding Program","Zip Code":11213,"borocode":3.0,"city":"Brooklyn","council district":36,"datadate":"FBNYC: 2016-08-05","dataname":"FBNYC: FBNYC Food Pantry Soup Kitchen List 8-5-16","datasource":"FBNYC","facdomain":"Health and Human Services","facgroup":"Human Services","facsubgrp":"Soup Kitchens and Food Pantries","factype":"Soup Kitchen","lat":40.671704,"lng":-73.927791,"opabbrev":"Non-public","opname":"New Gethsemane Baptist Church Feeding Program","optype":"Non-public","overabbrev":"Non-public","overagency":"Non-public","overlevel":"Non-public Oversight","pgtable":"foodbankny_facilities_foodbanks","street":"Rochester Avenue","xcoord":1004280.5329,"ycoord":184004.5745,"Type":"SOUP_KITCHEN"},{"Address":"108 East   51 Street","Borough":"Manhattan","Name":"Crossroads Community Services","Zip Code":10022,"borocode":1.0,"city":"New York","council district":4,"datadate":"FBNYC: 2016-08-05","dataname":"FBNYC: FBNYC Food Pantry Soup Kitchen List 8-5-16","datasource":"FBNYC","facdomain":"Health and Human Services","facgroup":"Human Services","facsubgrp":"Soup Kitchens and Food Pantries","factype":"Soup Kitchen","lat":40.757236,"lng":-73.973082,"opabbrev":"Non-public","opname":"Crossroads Community Services","optype":"Non-public","overabbrev":"Non-public","overagency":"Non-public","overlevel":"Non-public Oversight","pgtable":"foodbankny_facilities_foodbanks","street":"East   51 Street","xcoord":991707.5246,"ycoord":215159.174,"Type":"SOUP_KITCHEN"},{"Address":"150 South Portland Avenue","Borough":"Brooklyn","Name":"Hanson Place SDA Community Service","Zip Code":11217,"borocode":3.0,"city":"Brooklyn","council district":35,"datadate":"FBNYC: 2016-08-05","dataname":"FBNYC: FBNYC Food Pantry Soup Kitchen List 8-5-16","datasource":"FBNYC","facdomain":"Health and Human Services","facgroup":"Human Services","facsubgrp":"Soup Kitchens and Food Pantries","factype":"Soup Kitchen","lat":40.684903,"lng":-73.974376,"opabbrev":"Non-public","opname":"Hanson Place SDA Community Service","optype":"Non-public","overabbrev":"Non-public","overagency":"Non-public","overlevel":"Non-public Oversight","pgtable":"foodbankny_facilities_foodbanks","street":"South Portland Avenue","xcoord":991356.6784,"ycoord":188806.1081,"Type":"SOUP_KITCHEN"},{"Address":"3780 3 Avenue","Borough":"Bronx","Name":"Holy Tabernacle Church Inc.","Zip Code":10456,"borocode":2.0,"city":"Bronx","council district":16,"datadate":"FBNYC: 2016-08-05","dataname":"FBNYC: FBNYC Food Pantry Soup Kitchen List 8-5-16","datasource":"FBNYC","facdomain":"Health and Human Services","facgroup":"Human Services","facsubgrp":"Soup Kitchens and Food Pantries","factype":"Soup Kitchen","lat":40.836637,"lng":-73.902002,"opabbrev":"Non-public","opname":"Holy Tabernacle Church Inc.","optype":"Non-public","overabbrev":"Non-public","overagency":"Non-public","overlevel":"Non-public Oversight","pgtable":"foodbankny_facilities_foodbanks","street":"3 Avenue","xcoord":1011367.1473,"ycoord":244101.963,"Type":"SOUP_KITCHEN"},{"Address":"1032 Beach   19 Street","Borough":"Queens","Name":"United Methodist Center in Far Rockaway","Zip Code":11691,"borocode":4.0,"city":"Far Rockaway","council district":31,"datadate":"FBNYC: 2016-08-05","dataname":"FBNYC: FBNYC Food Pantry Soup Kitchen List 8-5-16","datasource":"FBNYC","facdomain":"Health and Human Services","facgroup":"Human Services","facsubgrp":"Soup Kitchens and Food Pantries","factype":"Soup Kitchen","lat":40.603096,"lng":-73.751728,"opabbrev":"Non-public","opname":"United Methodist Center in Far Rockaway","optype":"Non-public","overabbrev":"Non-public","overagency":"Non-public","overlevel":"Non-public Oversight","pgtable":"foodbankny_facilities_foodbanks","street":"Beach   19 Street","xcoord":1053190.9221999999,"ycoord":159098.4063,"Type":"SOUP_KITCHEN"},{"Address":"360 Schermerhorn Street","Borough":"Brooklyn","Name":"Rhow Brooklyn Inc","Zip Code":11217,"borocode":3.0,"city":"Brooklyn","council district":33,"datadate":"FBNYC: 2016-08-05","dataname":"FBNYC: FBNYC Food Pantry Soup Kitchen List 8-5-16","datasource":"FBNYC","facdomain":"Health and Human Services","facgroup":"Human Services","facsubgrp":"Soup Kitchens and Food Pantries","factype":"Soup Kitchen","lat":40.686525,"lng":-73.980299,"opabbrev":"Non-public","opname":"Rhow Brooklyn Inc","optype":"Non-public","overabbrev":"Non-public","overagency":"Non-public","overlevel":"Non-public Oversight","pgtable":"foodbankny_facilities_foodbanks","street":"Schermerhorn Street","xcoord":989713.8302,"ycoord":189396.4775,"Type":"SOUP_KITCHEN"},{"Address":"12 West  108 Street","Borough":"Manhattan","Name":"Southern Baptist Church","Zip Code":10025,"borocode":1.0,"city":"New York","council district":7,"datadate":"FBNYC: 2016-08-05","dataname":"FBNYC: FBNYC Food Pantry Soup Kitchen List 8-5-16","datasource":"FBNYC","facdomain":"Health and Human Services","facgroup":"Human Services","facsubgrp":"Soup Kitchens and Food Pantries","factype":"Soup Kitchen","lat":40.799537,"lng":-73.96012,"opabbrev":"Non-public","opname":"Southern Baptist Church","optype":"Non-public","overabbrev":"Non-public","overagency":"Non-public","overlevel":"Non-public Oversight","pgtable":"foodbankny_facilities_foodbanks","street":"West  108 Street","xcoord":995291.3999,"ycoord":230572.4863,"Type":"SOUP_KITCHEN"},{"Address":"33 East   12 Street","Borough":"Manhattan","Name":"The Village Temple Soup Kitchen","Zip Code":10003,"borocode":1.0,"city":"New York","council district":2,"datadate":"FBNYC: 2016-08-05","dataname":"FBNYC: FBNYC Food Pantry Soup Kitchen List 8-5-16","datasource":"FBNYC","facdomain":"Health and Human Services","facgroup":"Human Services","facsubgrp":"Soup Kitchens and Food Pantries","factype":"Soup Kitchen","lat":40.733896,"lng":-73.992212,"opabbrev":"Non-public","opname":"The Village Temple Soup Kitchen","optype":"Non-public","overabbrev":"Non-public","overagency":"Non-public","overlevel":"Non-public Oversight","pgtable":"foodbankny_facilities_foodbanks","street":"East   12 Street","xcoord":986408.2928000001,"ycoord":206654.8009,"Type":"SOUP_KITCHEN"},{"Address":"457 West   51 Street","Borough":"Manhattan","Name":"Sacred Heart of Jesus Church","Zip Code":10019,"borocode":1.0,"city":"New York","council district":3,"datadate":"FBNYC: 2016-08-05","dataname":"FBNYC: FBNYC Food Pantry Soup Kitchen List 8-5-16","datasource":"FBNYC","facdomain":"Health and Human Services","facgroup":"Human Services","facsubgrp":"Soup Kitchens and Food Pantries","factype":"Soup Kitchen","lat":40.765186,"lng":-73.990572,"opabbrev":"Non-public","opname":"Sacred Heart of Jesus Church","optype":"Non-public","overabbrev":"Non-public","overagency":"Non-public","overlevel":"Non-public Oversight","pgtable":"foodbankny_facilities_foodbanks","street":"West   51 Street","xcoord":986861.7585,"ycoord":218054.7141,"Type":"SOUP_KITCHEN"},{"Address":"405 West   59 Street","Borough":"Manhattan","Name":"Church of St. Paul the Apostle","Zip Code":10023,"borocode":1.0,"city":"New York","council district":3,"datadate":"FBNYC: 2016-08-05","dataname":"FBNYC: FBNYC Food Pantry Soup Kitchen List 8-5-16","datasource":"FBNYC","facdomain":"Health and Human Services","facgroup":"Human Services","facsubgrp":"Soup Kitchens and Food Pantries","factype":"Soup Kitchen","lat":40.769786,"lng":-73.985626,"opabbrev":"Non-public","opname":"Church of St. Paul the Apostle","optype":"Non-public","overabbrev":"Non-public","overagency":"Non-public","overlevel":"Non-public Oversight","pgtable":"foodbankny_facilities_foodbanks","street":"West   59 Street","xcoord":988231.5946,"ycoord":219731.0817,"Type":"SOUP_KITCHEN"},{"Address":"777 East  222 Street","Borough":"Bronx","Name":"St. Luke's Senior Community Program","Zip Code":10466,"borocode":2.0,"city":"Bronx","council district":12,"datadate":"FBNYC: 2016-08-05","dataname":"FBNYC: FBNYC Food Pantry Soup Kitchen List 8-5-16","datasource":"FBNYC","facdomain":"Health and Human Services","facgroup":"Human Services","facsubgrp":"Soup Kitchens and Food Pantries","factype":"Soup Kitchen","lat":40.8851,"lng":-73.859011,"opabbrev":"Non-public","opname":"St. Luke's Senior Community Program","optype":"Non-public","overabbrev":"Non-public","overagency":"Non-public","overlevel":"Non-public Oversight","pgtable":"foodbankny_facilities_foodbanks","street":"East  222 Street","xcoord":1023234.9569,"ycoord":261775.1576,"Type":"SOUP_KITCHEN"},{"Address":"409 East   95 Street","Borough":"Brooklyn","Name":"The Hope Center Development Corporation","Zip Code":11212,"borocode":3.0,"city":"Brooklyn","council district":41,"datadate":"FBNYC: 2016-08-05","dataname":"FBNYC: FBNYC Food Pantry Soup Kitchen List 8-5-16","datasource":"FBNYC","facdomain":"Health and Human Services","facgroup":"Human Services","facsubgrp":"Soup Kitchens and Food Pantries","factype":"Soup Kitchen","lat":40.657244,"lng":-73.918356,"opabbrev":"Non-public","opname":"The Hope Center Development Corporation","optype":"Non-public","overabbrev":"Non-public","overagency":"Non-public","overlevel":"Non-public Oversight","pgtable":"foodbankny_facilities_foodbanks","street":"East   95 Street","xcoord":1006902.7871,"ycoord":178738.7425,"Type":"SOUP_KITCHEN"},{"Address":"525 West  155 Street","Borough":"Manhattan","Name":"Community Food Program North Presbyterian Church","Zip Code":10032,"borocode":1.0,"city":"New York","council district":7,"datadate":"FBNYC: 2016-08-05","dataname":"FBNYC: FBNYC Food Pantry Soup Kitchen List 8-5-16","datasource":"FBNYC","facdomain":"Health and Human Services","facgroup":"Human Services","facsubgrp":"Soup Kitchens and Food Pantries","factype":"Soup Kitchen","lat":40.832432,"lng":-73.944302,"opabbrev":"Non-public","opname":"Community Food Program North Presbyterian Church","optype":"Non-public","overabbrev":"Non-public","overagency":"Non-public","overlevel":"Non-public Oversight","pgtable":"foodbankny_facilities_foodbanks","street":"West  155 Street","xcoord":999663.2027,"ycoord":242559.6106,"Type":"SOUP_KITCHEN"},{"Address":"800 East  156 Street","Borough":"Bronx","Name":"Give Them To Eat","Zip Code":10455,"borocode":2.0,"city":"Bronx","council district":17,"datadate":"FBNYC: 2016-08-05","dataname":"FBNYC: FBNYC Food Pantry Soup Kitchen List 8-5-16","datasource":"FBNYC","facdomain":"Health and Human Services","facgroup":"Human Services","facsubgrp":"Soup Kitchens and Food Pantries","factype":"Soup Kitchen","lat":40.817439,"lng":-73.904431,"opabbrev":"Non-public","opname":"Give Them To Eat","optype":"Non-public","overabbrev":"Non-public","overagency":"Non-public","overlevel":"Non-public Oversight","pgtable":"foodbankny_facilities_foodbanks","street":"East  156 Street","xcoord":1010702.7878,"ycoord":237106.5718,"Type":"SOUP_KITCHEN"},{"Address":"110-25 Guy R Brewer Boulevard","Borough":"Queens","Name":"Bethel Gospel Tabernacle Church","Zip Code":11433,"borocode":4.0,"city":"Jamaica","council district":27,"datadate":"FBNYC: 2016-08-05","dataname":"FBNYC: FBNYC Food Pantry Soup Kitchen List 8-5-16","datasource":"FBNYC","facdomain":"Health and Human Services","facgroup":"Human Services","facsubgrp":"Soup Kitchens and Food Pantries","factype":"Soup Kitchen","lat":40.692745,"lng":-73.788116,"opabbrev":"Non-public","opname":"Bethel Gospel Tabernacle Church","optype":"Non-public","overabbrev":"Non-public","overagency":"Non-public","overlevel":"Non-public Oversight","pgtable":"foodbankny_facilities_foodbanks","street":"Guy R Brewer Boulevard","xcoord":1043007.6245,"ycoord":191733.0316,"Type":"SOUP_KITCHEN"},{"Address":"601 West  114 Street","Borough":"Manhattan","Name":"Broadway Community Inc.","Zip Code":10025,"borocode":1.0,"city":"New York","council district":7,"datadate":"FBNYC: 2016-08-05","dataname":"FBNYC: FBNYC Food Pantry Soup Kitchen List 8-5-16","datasource":"FBNYC","facdomain":"Health and Human Services","facgroup":"Human Services","facsubgrp":"Soup Kitchens and Food Pantries","factype":"Soup Kitchen","lat":40.807077,"lng":-73.96517,"opabbrev":"Non-public","opname":"Broadway Community Inc.","optype":"Non-public","overabbrev":"Non-public","overagency":"Non-public","overlevel":"Non-public Oversight","pgtable":"foodbankny_facilities_foodbanks","street":"West  114 Street","xcoord":993892.1357,"ycoord":233318.9511,"Type":"SOUP_KITCHEN"},{"Address":"1372 Coney Island Avenue","Borough":"Brooklyn","Name":"Masbia of Flatbush","Zip Code":11230,"borocode":3.0,"city":"Brooklyn","council district":44,"datadate":"FBNYC: 2016-08-05","dataname":"FBNYC: FBNYC Food Pantry Soup Kitchen List 8-5-16","datasource":"FBNYC","facdomain":"Health and Human Services","facgroup":"Human Services","facsubgrp":"Soup Kitchens and Food Pantries","factype":"Soup Kitchen","lat":40.624045,"lng":-73.965393,"opabbrev":"Non-public","opname":"Masbia of Flatbush","optype":"Non-public","overabbrev":"Non-public","overagency":"Non-public","overlevel":"Non-public Oversight","pgtable":"foodbankny_facilities_foodbanks","street":"Coney Island Avenue","xcoord":993856.6921,"ycoord":166634.8787,"Type":"SOUP_KITCHEN"},{"Address":"800 Marcy Avenue","Borough":"Brooklyn","Name":"St. George's Episcopal Church","Zip Code":11216,"borocode":3.0,"city":"Brooklyn","council district":36,"datadate":"FBNYC: 2016-08-05","dataname":"FBNYC: FBNYC Food Pantry Soup Kitchen List 8-5-16","datasource":"FBNYC","facdomain":"Health and Human Services","facgroup":"Human Services","facsubgrp":"Soup Kitchens and Food Pantries","factype":"Soup Kitchen","lat":40.686297,"lng":-73.947818,"opabbrev":"Non-public","opname":"St. George's Episcopal Church","optype":"Non-public","overabbrev":"Non-public","overagency":"Non-public","overlevel":"Non-public Oversight","pgtable":"foodbankny_facilities_foodbanks","street":"Marcy Avenue","xcoord":998721.9571,"ycoord":189317.3678,"Type":"SOUP_KITCHEN"},{"Address":"358 Kosciuszko Street","Borough":"Brooklyn","Name":"Crossover Baptist Church Comm. Outreach Help Cntr.","Zip Code":11221,"borocode":3.0,"city":"Brooklyn","council district":36,"datadate":"FBNYC: 2016-08-05","dataname":"FBNYC: FBNYC Food Pantry Soup Kitchen List 8-5-16","datasource":"FBNYC","facdomain":"Health and Human Services","facgroup":"Human Services","facsubgrp":"Soup Kitchens and Food Pantries","factype":"Soup Kitchen","lat":40.691795,"lng":-73.940067,"opabbrev":"Non-public","opname":"Crossover Baptist Church Comm. Outreach Help Cntr.","optype":"Non-public","overabbrev":"Non-public","overagency":"Non-public","overlevel":"Non-public Oversight","pgtable":"foodbankny_facilities_foodbanks","street":"Kosciuszko Street","xcoord":1000870.2135,"ycoord":191321.6126,"Type":"SOUP_KITCHEN"},{"Address":"109-20 34 Avenue","Borough":"Queens","Name":"Mt. Horeb Baptist Church","Zip Code":11368,"borocode":4.0,"city":"Corona","council district":21,"datadate":"FBNYC: 2016-08-05","dataname":"FBNYC: FBNYC Food Pantry Soup Kitchen List 8-5-16","datasource":"FBNYC","facdomain":"Health and Human Services","facgroup":"Human Services","facsubgrp":"Soup Kitchens and Food Pantries","factype":"Soup Kitchen","lat":40.756088,"lng":-73.858814,"opabbrev":"Non-public","opname":"Mt. Horeb Baptist Church","optype":"Non-public","overabbrev":"Non-public","overagency":"Non-public","overlevel":"Non-public Oversight","pgtable":"foodbankny_facilities_foodbanks","street":"34 Avenue","xcoord":1023365.3343,"ycoord":214771.3465,"Type":"SOUP_KITCHEN"},{"Address":"555 Broome Street","Borough":"Manhattan","Name":"The Door","Zip Code":10013,"borocode":1.0,"city":"New York","council district":3,"datadate":"FBNYC: 2016-08-05","dataname":"FBNYC: FBNYC Food Pantry Soup Kitchen List 8-5-16","datasource":"FBNYC","facdomain":"Health and Human Services","facgroup":"Human Services","facsubgrp":"Soup Kitchens and Food Pantries","factype":"Soup Kitchen","lat":40.72411,"lng":-74.005533,"opabbrev":"Non-public","opname":"The Door","optype":"Non-public","overabbrev":"Non-public","overagency":"Non-public","overlevel":"Non-public Oversight","pgtable":"foodbankny_facilities_foodbanks","street":"Broome Street","xcoord":982716.2463999999,"ycoord":203089.4821,"Type":"SOUP_KITCHEN"},{"Address":"226 East 144th Street","Borough":"Bronx","Name":"Momentum Project Inc. @ St. Peter's Church","Zip Code":10452,"borocode":null,"city":"Bronx","council district":16,"datadate":"FBNYC: 2016-08-05","dataname":"FBNYC: FBNYC Food Pantry Soup Kitchen List 8-5-16","datasource":"FBNYC","facdomain":"Health and Human Services","facgroup":"Human Services","facsubgrp":"Soup Kitchens and Food Pantries","factype":"Soup Kitchen","lat":40.837184,"lng":-73.921578,"opabbrev":"Non-public","opname":"Momentum Project Inc. @ St. Peter's Church","optype":"Non-public","overabbrev":"Non-public","overagency":"Non-public","overlevel":"Non-public Oversight","pgtable":"foodbankny_facilities_foodbanks","street":"East 144th Street","xcoord":1005950.1686,"ycoord":244295.7509,"Type":"SOUP_KITCHEN"},{"Address":"37-22 Union Street","Borough":"Queens","Name":"Macedonia AME Church","Zip Code":11354,"borocode":4.0,"city":"Flushing","council district":20,"datadate":"FBNYC: 2016-08-05","dataname":"FBNYC: FBNYC Food Pantry Soup Kitchen List 8-5-16","datasource":"FBNYC","facdomain":"Health and Human Services","facgroup":"Human Services","facsubgrp":"Soup Kitchens and Food Pantries","factype":"Soup Kitchen","lat":40.761783,"lng":-73.827546,"opabbrev":"Non-public","opname":"Macedonia AME Church","optype":"Non-public","overabbrev":"Non-public","overagency":"Non-public","overlevel":"Non-public Oversight","pgtable":"foodbankny_facilities_foodbanks","street":"Union Street","xcoord":1032023.7320000001,"ycoord":216861.9078,"Type":"SOUP_KITCHEN"},{"Address":"201 Lenox Avenue","Borough":"Manhattan","Name":"Mt.Olivet Baptist Church Community Meal Program","Zip Code":10027,"borocode":1.0,"city":"New York","council district":9,"datadate":"FBNYC: 2016-08-05","dataname":"FBNYC: FBNYC Food Pantry Soup Kitchen List 8-5-16","datasource":"FBNYC","facdomain":"Health and Human Services","facgroup":"Human Services","facsubgrp":"Soup Kitchens and Food Pantries","factype":"Soup Kitchen","lat":40.804936,"lng":-73.948074,"opabbrev":"Non-public","opname":"Mt.Olivet Baptist Church Community Meal Program","optype":"Non-public","overabbrev":"Non-public","overagency":"Non-public","overlevel":"Non-public Oversight","pgtable":"foodbankny_facilities_foodbanks","street":"Lenox Avenue","xcoord":998625.3929,"ycoord":232541.0528,"Type":"SOUP_KITCHEN"},{"Address":"250 East   79 Street","Borough":"Manhattan","Name":"Temple Sharaay Tefila","Zip Code":10075,"borocode":1.0,"city":"New York","council district":4,"datadate":"FBNYC: 2016-08-05","dataname":"FBNYC: FBNYC Food Pantry Soup Kitchen List 8-5-16","datasource":"FBNYC","facdomain":"Health and Human Services","facgroup":"Human Services","facsubgrp":"Soup Kitchens and Food Pantries","factype":"Soup Kitchen","lat":40.773233,"lng":-73.955553,"opabbrev":"Non-public","opname":"Temple Sharaay Tefila","optype":"Non-public","overabbrev":"Non-public","overagency":"Non-public","overlevel":"Non-public Oversight","pgtable":"foodbankny_facilities_foodbanks","street":"East   79 Street","xcoord":996560.7152,"ycoord":220989.4382,"Type":"SOUP_KITCHEN"},{"Address":"777 Schenectady Avenue","Borough":"Brooklyn","Name":"Christian Fellowship SDA Community Svcs- S.K.","Zip Code":11203,"borocode":3.0,"city":"Brooklyn","council district":41,"datadate":"FBNYC: 2016-08-05","dataname":"FBNYC: FBNYC Food Pantry Soup Kitchen List 8-5-16","datasource":"FBNYC","facdomain":"Health and Human Services","facgroup":"Human Services","facsubgrp":"Soup Kitchens and Food Pantries","factype":"Soup Kitchen","lat":40.65425,"lng":-73.933251,"opabbrev":"Non-public","opname":"Christian Fellowship SDA Community Svcs- S.K.","optype":"Non-public","overabbrev":"Non-public","overagency":"Non-public","overlevel":"Non-public Oversight","pgtable":"foodbankny_facilities_foodbanks","street":"Schenectady Avenue","xcoord":1002770.8179,"ycoord":177644.521,"Type":"SOUP_KITCHEN"},{"Address":"2114 Mermaid Avenue","Borough":"Brooklyn","Name":"Acts Community Development Corporation","Zip Code":11224,"borocode":3.0,"city":"Brooklyn","council district":47,"datadate":"FBNYC: 2016-08-05","dataname":"FBNYC: FBNYC Food Pantry Soup Kitchen List 8-5-16","datasource":"FBNYC","facdomain":"Health and Human Services","facgroup":"Human Services","facsubgrp":"Soup Kitchens and Food Pantries","factype":"Soup Kitchen","lat":40.576037,"lng":-73.988416,"opabbrev":"Non-public","opname":"Acts Community Development Corporation","optype":"Non-public","overabbrev":"Non-public","overagency":"Non-public","overlevel":"Non-public Oversight","pgtable":"foodbankny_facilities_foodbanks","street":"Mermaid Avenue","xcoord":987468.1209,"ycoord":149142.3517,"Type":"SOUP_KITCHEN"},{"Address":"72-25 Woodside Avenue","Borough":"Queens","Name":"Jackson Heights SDA","Zip Code":11377,"borocode":4.0,"city":"Woodside","council district":25,"datadate":"FBNYC: 2016-08-05","dataname":"FBNYC: FBNYC Food Pantry Soup Kitchen List 8-5-16","datasource":"FBNYC","facdomain":"Health and Human Services","facgroup":"Human Services","facsubgrp":"Soup Kitchens and Food Pantries","factype":"Soup Kitchen","lat":40.743253,"lng":-73.891842,"opabbrev":"Non-public","opname":"Jackson Heights SDA","optype":"Non-public","overabbrev":"Non-public","overagency":"Non-public","overlevel":"Non-public Oversight","pgtable":"foodbankny_facilities_foodbanks","street":"Woodside Avenue","xcoord":1014220.6746,"ycoord":210082.2723,"Type":"SOUP_KITCHEN"},{"Address":"650 Washington Avenue","Borough":"Brooklyn","Name":"Hope City Empowerment Center","Zip Code":11238,"borocode":3.0,"city":"Brooklyn","council district":35,"datadate":"FBNYC: 2016-08-05","dataname":"FBNYC: FBNYC Food Pantry Soup Kitchen List 8-5-16","datasource":"FBNYC","facdomain":"Health and Human Services","facgroup":"Human Services","facsubgrp":"Soup Kitchens and Food Pantries","factype":"Soup Kitchen","lat":40.678872,"lng":-73.96425,"opabbrev":"Non-public","opname":"Hope City Empowerment Center","optype":"Non-public","overabbrev":"Non-public","overagency":"Non-public","overlevel":"Non-public Oversight","pgtable":"foodbankny_facilities_foodbanks","street":"Washington Avenue","xcoord":994165.9844,"ycoord":186609.7737,"Type":"SOUP_KITCHEN"},{"Address":"137 East    2 Street","Borough":"Manhattan","Name":"University Community Social Services","Zip Code":10009,"borocode":1.0,"city":"New York","council district":2,"datadate":"FBNYC: 2016-08-05","dataname":"FBNYC: FBNYC Food Pantry Soup Kitchen List 8-5-16","datasource":"FBNYC","facdomain":"Health and Human Services","facgroup":"Human Services","facsubgrp":"Soup Kitchens and Food Pantries","factype":"Soup Kitchen","lat":40.723004,"lng":-73.986351,"opabbrev":"Non-public","opname":"University Community Social Services","optype":"Non-public","overabbrev":"Non-public","overagency":"Non-public","overlevel":"Non-public Oversight","pgtable":"foodbankny_facilities_foodbanks","street":"East    2 Street","xcoord":988033.3352,"ycoord":202686.6465,"Type":"SOUP_KITCHEN"},{"Address":"1243 Bushwick Avenue","Borough":"Brooklyn","Name":"Thurston Memorial Outreach Ministries","Zip Code":11221,"borocode":3.0,"city":"Brooklyn","council district":37,"datadate":"FBNYC: 2016-08-05","dataname":"FBNYC: FBNYC Food Pantry Soup Kitchen List 8-5-16","datasource":"FBNYC","facdomain":"Health and Human Services","facgroup":"Human Services","facsubgrp":"Soup Kitchens and Food Pantries","factype":"Soup Kitchen","lat":40.687869,"lng":-73.914623,"opabbrev":"Non-public","opname":"Thurston Memorial Outreach Ministries","optype":"Non-public","overabbrev":"Non-public","overagency":"Non-public","overlevel":"Non-public Oversight","pgtable":"foodbankny_facilities_foodbanks","street":"Bushwick Avenue","xcoord":1007927.6123,"ycoord":189897.2044,"Type":"SOUP_KITCHEN"},{"Address":"1157 Lexington Avenue","Borough":"Manhattan","Name":"Unitarian Church of All Souls","Zip Code":10021,"borocode":null,"city":"New York","council district":5,"datadate":"FBNYC: 2016-08-05","dataname":"FBNYC: FBNYC Food Pantry Soup Kitchen List 8-5-16","datasource":"FBNYC","facdomain":"Health and Human Services","facgroup":"Human Services","facsubgrp":"Soup Kitchens and Food Pantries","factype":"Soup Kitchen","lat":40.775307,"lng":-73.958606,"opabbrev":"Non-public","opname":"Unitarian Church of All Souls","optype":"Non-public","overabbrev":"Non-public","overagency":"Non-public","overlevel":"Non-public Oversight","pgtable":"foodbankny_facilities_foodbanks","street":"Lexington Avenue","xcoord":995714.797,"ycoord":221744.7314,"Type":"SOUP_KITCHEN"},{"Address":"2134 Dean Street","Borough":"Brooklyn","Name":"Glover Memorial BC\/Bread of Life Soup Kitchen","Zip Code":11233,"borocode":3.0,"city":"Brooklyn","council district":41,"datadate":"FBNYC: 2016-08-05","dataname":"FBNYC: FBNYC Food Pantry Soup Kitchen List 8-5-16","datasource":"FBNYC","facdomain":"Health and Human Services","facgroup":"Human Services","facsubgrp":"Soup Kitchens and Food Pantries","factype":"Soup Kitchen","lat":40.674909,"lng":-73.91703,"opabbrev":"Non-public","opname":"Glover Memorial BC\/Bread of Life Soup Kitchen","optype":"Non-public","overabbrev":"Non-public","overagency":"Non-public","overlevel":"Non-public Oversight","pgtable":"foodbankny_facilities_foodbanks","street":"Dean Street","xcoord":1007264.7126,"ycoord":185174.9058,"Type":"SOUP_KITCHEN"},{"Address":"929 Marcy Avenue","Borough":"Brooklyn","Name":"Agape Social Services Beulah Ministry","Zip Code":11216,"borocode":3.0,"city":"Brooklyn","council district":36,"datadate":"FBNYC: 2016-08-05","dataname":"FBNYC: FBNYC Food Pantry Soup Kitchen List 8-5-16","datasource":"FBNYC","facdomain":"Health and Human Services","facgroup":"Human Services","facsubgrp":"Soup Kitchens and Food Pantries","factype":"Soup Kitchen","lat":40.68096,"lng":-73.946162,"opabbrev":"Non-public","opname":"Agape Social Services Beulah Ministry","optype":"Non-public","overabbrev":"Non-public","overagency":"Non-public","overlevel":"Non-public Oversight","pgtable":"foodbankny_facilities_foodbanks","street":"Marcy Avenue","xcoord":999182.5361,"ycoord":187373.0095,"Type":"SOUP_KITCHEN"},{"Address":"1271 Burke Avenue","Borough":"Bronx","Name":"Victory SDA Church","Zip Code":10469,"borocode":2.0,"city":"Bronx","council district":12,"datadate":"FBNYC: 2016-08-05","dataname":"FBNYC: FBNYC Food Pantry Soup Kitchen List 8-5-16","datasource":"FBNYC","facdomain":"Health and Human Services","facgroup":"Human Services","facsubgrp":"Soup Kitchens and Food Pantries","factype":"Soup Kitchen","lat":40.871568,"lng":-73.85011,"opabbrev":"Non-public","opname":"Victory SDA Church","optype":"Non-public","overabbrev":"Non-public","overagency":"Non-public","overlevel":"Non-public Oversight","pgtable":"foodbankny_facilities_foodbanks","street":"Burke Avenue","xcoord":1025704.6963,"ycoord":256848.9933,"Type":"SOUP_KITCHEN"},{"Address":"425 East  159 Street","Borough":"Bronx","Name":"The Salvation Army Bronx Citadel","Zip Code":10451,"borocode":2.0,"city":"Bronx","council district":17,"datadate":"FBNYC: 2016-08-05","dataname":"FBNYC: FBNYC Food Pantry Soup Kitchen List 8-5-16","datasource":"FBNYC","facdomain":"Health and Human Services","facgroup":"Human Services","facsubgrp":"Soup Kitchens and Food Pantries","factype":"Soup Kitchen","lat":40.822757,"lng":-73.913389,"opabbrev":"Non-public","opname":"The Salvation Army Bronx Citadel","optype":"Non-public","overabbrev":"Non-public","overagency":"Non-public","overlevel":"Non-public Oversight","pgtable":"foodbankny_facilities_foodbanks","street":"East  159 Street","xcoord":1008221.3828,"ycoord":239041.6375,"Type":"SOUP_KITCHEN"},{"Address":"1520 Herkimer Street","Borough":"Brooklyn","Name":"Calvary Free Will Baptist Church","Zip Code":11207,"borocode":3.0,"city":"Brooklyn","council district":37,"datadate":"FBNYC: 2016-08-05","dataname":"FBNYC: FBNYC Food Pantry Soup Kitchen List 8-5-16","datasource":"FBNYC","facdomain":"Health and Human Services","facgroup":"Human Services","facsubgrp":"Soup Kitchens and Food Pantries","factype":"Soup Kitchen","lat":40.676867,"lng":-73.903095,"opabbrev":"Non-public","opname":"Calvary Free Will Baptist Church","optype":"Non-public","overabbrev":"Non-public","overagency":"Non-public","overlevel":"Non-public Oversight","pgtable":"foodbankny_facilities_foodbanks","street":"Herkimer Street","xcoord":1011129.2877,"ycoord":185892.1898,"Type":"SOUP_KITCHEN"},{"Address":"295 St Anns Avenue","Borough":"Bronx","Name":"St. Ann's Church of Morrisania","Zip Code":10454,"borocode":2.0,"city":"Bronx","council district":8,"datadate":"FBNYC: 2016-08-05","dataname":"FBNYC: FBNYC Food Pantry Soup Kitchen List 8-5-16","datasource":"FBNYC","facdomain":"Health and Human Services","facgroup":"Human Services","facsubgrp":"Soup Kitchens and Food Pantries","factype":"Soup Kitchen","lat":40.808501,"lng":-73.917034,"opabbrev":"Non-public","opname":"St. Ann's Church of Morrisania","optype":"Non-public","overabbrev":"Non-public","overagency":"Non-public","overlevel":"Non-public Oversight","pgtable":"foodbankny_facilities_foodbanks","street":"St Anns Avenue","xcoord":1007217.3554999999,"ycoord":233846.6353,"Type":"SOUP_KITCHEN"},{"Address":"1832 Madison Avenue","Borough":"Manhattan","Name":"Beth Hark Christian Counseling Center","Zip Code":10035,"borocode":1.0,"city":"New York","council district":9,"datadate":"FBNYC: 2016-08-05","dataname":"FBNYC: FBNYC Food Pantry Soup Kitchen List 8-5-16","datasource":"FBNYC","facdomain":"Health and Human Services","facgroup":"Human Services","facsubgrp":"Soup Kitchens and Food Pantries","factype":"Soup Kitchen","lat":40.802484,"lng":-73.94378,"opabbrev":"Non-public","opname":"Beth Hark Christian Counseling Center","optype":"Non-public","overabbrev":"Non-public","overagency":"Non-public","overlevel":"Non-public Oversight","pgtable":"foodbankny_facilities_foodbanks","street":"Madison Avenue","xcoord":999814.6884,"ycoord":231648.5461,"Type":"SOUP_KITCHEN"},{"Address":"277 Stuyvesant Avenue","Borough":"Brooklyn","Name":"Bridge Street Missionary Feeding Program","Zip Code":11221,"borocode":3.0,"city":"Brooklyn","council district":36,"datadate":"FBNYC: 2016-08-05","dataname":"FBNYC: FBNYC Food Pantry Soup Kitchen List 8-5-16","datasource":"FBNYC","facdomain":"Health and Human Services","facgroup":"Human Services","facsubgrp":"Soup Kitchens and Food Pantries","factype":"Soup Kitchen","lat":40.685079,"lng":-73.932179,"opabbrev":"Non-public","opname":"Bridge Street Missionary Feeding Program","optype":"Non-public","overabbrev":"Non-public","overagency":"Non-public","overlevel":"Non-public Oversight","pgtable":"foodbankny_facilities_foodbanks","street":"Stuyvesant Avenue","xcoord":1003059.6904,"ycoord":188876.5693,"Type":"SOUP_KITCHEN"},{"Address":"3816 9 Avenue","Borough":"Manhattan","Name":"New York City Love Kitchen Inc.","Zip Code":10034,"borocode":1.0,"city":"New York","council district":10,"datadate":"FBNYC: 2016-08-05","dataname":"FBNYC: FBNYC Food Pantry Soup Kitchen List 8-5-16","datasource":"FBNYC","facdomain":"Health and Human Services","facgroup":"Human Services","facsubgrp":"Soup Kitchens and Food Pantries","factype":"Soup Kitchen","lat":40.862198,"lng":-73.91852,"opabbrev":"Non-public","opname":"New York City Love Kitchen Inc.","optype":"Non-public","overabbrev":"Non-public","overagency":"Non-public","overlevel":"Non-public Oversight","pgtable":"foodbankny_facilities_foodbanks","street":"9 Avenue","xcoord":1006787.9952,"ycoord":253410.1932,"Type":"SOUP_KITCHEN"},{"Address":"1151 Bushwick Avenue","Borough":"Brooklyn","Name":"The Salvation Army Bushwick Corps","Zip Code":11221,"borocode":3.0,"city":"Brooklyn","council district":34,"datadate":"FBNYC: 2016-08-05","dataname":"FBNYC: FBNYC Food Pantry Soup Kitchen List 8-5-16","datasource":"FBNYC","facdomain":"Health and Human Services","facgroup":"Human Services","facsubgrp":"Soup Kitchens and Food Pantries","factype":"Soup Kitchen","lat":40.689285,"lng":-73.917051,"opabbrev":"Non-public","opname":"The Salvation Army Bushwick Corps","optype":"Non-public","overabbrev":"Non-public","overagency":"Non-public","overlevel":"Non-public Oversight","pgtable":"foodbankny_facilities_foodbanks","street":"Bushwick Avenue","xcoord":1007253.839,"ycoord":190412.4377,"Type":"SOUP_KITCHEN"},{"Address":"5 West  128 Street","Borough":"Manhattan","Name":"Shiloh Church of Christ","Zip Code":10027,"borocode":1.0,"city":"New York","council district":9,"datadate":"FBNYC: 2016-08-05","dataname":"FBNYC: FBNYC Food Pantry Soup Kitchen List 8-5-16","datasource":"FBNYC","facdomain":"Health and Human Services","facgroup":"Human Services","facsubgrp":"Soup Kitchens and Food Pantries","factype":"Soup Kitchen","lat":40.808758,"lng":-73.941292,"opabbrev":"Non-public","opname":"Shiloh Church of Christ","optype":"Non-public","overabbrev":"Non-public","overagency":"Non-public","overlevel":"Non-public Oversight","pgtable":"foodbankny_facilities_foodbanks","street":"West  128 Street","xcoord":1000502.062,"ycoord":233934.6999,"Type":"SOUP_KITCHEN"}]